{"lines":[{"route_number":"1","color":"0055A0","picto":"L1.png","stops":[{"stop_id":"41101","name":"Mosson","stop_lat":"43.6163194996841","stop_lon":"3.81978749280886"},{"stop_id":"41103","name":"Halles de la Paillade","stop_lat":"43.6275697871031","stop_lon":"3.81750552997029"},{"stop_id":"41105","name":"Saint-Paul","stop_lat":"43.6306581031337","stop_lon":"3.8210881264583"},{"stop_id":"41107","name":"Hauts de Massane","stop_lat":"43.6363704329782","stop_lon":"3.82277145576433"},{"stop_id":"41109","name":"Eurom\u00e9decine","stop_lat":"43.6389727270998","stop_lon":"3.82769143492461"},{"stop_id":"41111","name":"Malbosc","stop_lat":"43.6345906749945","stop_lon":"3.8331962785179"},{"stop_id":"41113","name":"Ch\u00e2teau d'\u00d4","stop_lat":"43.6314418794986","stop_lon":"3.84308928447609"},{"stop_id":"41115","name":"Occitanie","stop_lat":"43.6346302977529","stop_lon":"3.84845850910512"},{"stop_id":"41117","name":"H\u00f4pital Lapeyronie","stop_lat":"43.6316510467744","stop_lon":"3.85257532406546"},{"stop_id":"41119","name":"Universit\u00e9s Sciences et Lettres","stop_lat":"43.6291244626956","stop_lon":"3.8615675881189"},{"stop_id":"41121","name":"Saint-\u00c9loi","stop_lat":"43.6269896171141","stop_lon":"3.86569356800668"},{"stop_id":"41123","name":"Boutonnet","stop_lat":"43.6225867509347","stop_lon":"3.8680877655281"},{"stop_id":"41125","name":"Stade Philippid\u00e8s","stop_lat":"43.618989362045","stop_lon":"3.8694638115266"},{"stop_id":"41127","name":"Place Albert 1er","stop_lat":"43.6164493475913","stop_lon":"3.87424603509102"},{"stop_id":"41129","name":"Louis Blanc","stop_lat":"43.6147460835895","stop_lon":"3.87833279432343"},{"stop_id":"41131","name":"Corum","stop_lat":"43.6142538878797","stop_lon":"3.88195716825633"},{"stop_id":"41133","name":"Com\u00e9die","stop_lat":"43.6083711439975","stop_lon":"3.87968246864816"},{"stop_id":"41135","name":"Gare Saint-Roch","stop_lat":"43.6057394168241","stop_lon":"3.8801557150493"},{"stop_id":"41138","name":"Du Guesclin","stop_lat":"43.6071156106586","stop_lon":"3.88324864623093"},{"stop_id":"41139","name":"Antigone","stop_lat":"43.6085859594197","stop_lon":"3.88666594937517"},{"stop_id":"41141","name":"L\u00e9on Blum","stop_lat":"43.6089133592868","stop_lon":"3.89016369677972"},{"stop_id":"41143","name":"Place de l'Europe","stop_lat":"43.6071866399633","stop_lon":"3.89396427404087"},{"stop_id":"41145","name":"Rives du Lez","stop_lat":"43.6040712861004","stop_lon":"3.89493087057306"},{"stop_id":"41147","name":"Moular\u00e8s (H\u00f4tel de Ville)","stop_lat":"43.6007299548366","stop_lon":"3.89535927969668"},{"stop_id":"41149","name":"Port Marianne","stop_lat":"43.6015763562532","stop_lon":"3.89962538372382"},{"stop_id":"41151","name":"Mondial 98","stop_lat":"43.6026172384494","stop_lon":"3.90410725317879"},{"stop_id":"41153","name":"Mill\u00e9naire","stop_lat":"43.6028806332787","stop_lon":"3.91011422517616"},{"stop_id":"41155","name":"Mill\u00e9naire","stop_lat":"43.6028806332787","stop_lon":"3.91011422517616"},{"stop_id":"41161","name":"Place de France","stop_lat":"43.603724580047","stop_lon":"3.91574144647471"},{"stop_id":"41163","name":"Stade de la Mosson","stop_lat":"43.6212518122144","stop_lon":"3.81737884035853"},{"stop_id":"41201","name":"Odysseum","stop_lat":"43.6041288916269","stop_lon":"3.9206762459918"},{"stop_id":"41203","name":"Mill\u00e9naire","stop_lat":"43.6029075915366","stop_lon":"3.91011496766347"},{"stop_id":"41205","name":"Mondial 98","stop_lat":"43.602644196743","stop_lon":"3.90410799282751"},{"stop_id":"41207","name":"Port Marianne","stop_lat":"43.6015648147091","stop_lon":"3.89917973718665"},{"stop_id":"41209","name":"Moular\u00e8s (H\u00f4tel de Ville)","stop_lat":"43.6007378719135","stop_lon":"3.89543371634385"},{"stop_id":"41211","name":"Rives du Lez","stop_lat":"43.6040171912106","stop_lon":"3.89494176586073"},{"stop_id":"41213","name":"Place de l'Europe","stop_lat":"43.6073039939688","stop_lon":"3.89393035868125"},{"stop_id":"41215","name":"L\u00e9on Blum","stop_lat":"43.6089399626543","stop_lon":"3.89018916400619"},{"stop_id":"41217","name":"Antigone","stop_lat":"43.6086044632931","stop_lon":"3.88662933610549"},{"stop_id":"41218","name":"Du Guesclin","stop_lat":"43.6071251271782","stop_lon":"3.88321178951546"},{"stop_id":"41221","name":"Gare Saint-Roch","stop_lat":"43.6057660224829","stop_lon":"3.88018117619871"},{"stop_id":"41223","name":"Com\u00e9die","stop_lat":"43.6083614522908","stop_lon":"3.87973169370189"},{"stop_id":"41225","name":"Corum","stop_lat":"43.6143069220478","stop_lon":"3.88202046807643"},{"stop_id":"41227","name":"Louis Blanc","stop_lat":"43.614736216221","stop_lon":"3.87839439343216"},{"stop_id":"41229","name":"Place Albert 1er","stop_lat":"43.6164038890181","stop_lon":"3.87428193165593"},{"stop_id":"41231","name":"Stade Philippid\u00e8s","stop_lat":"43.6189888364122","stop_lon":"3.86950091936459"},{"stop_id":"41233","name":"Boutonnet","stop_lat":"43.6225952120886","stop_lon":"3.86812511668937"},{"stop_id":"41235","name":"Saint-\u00c9loi","stop_lat":"43.6270072402572","stop_lon":"3.86571879128006"},{"stop_id":"41237","name":"Universit\u00e9s Sciences et Lettres","stop_lat":"43.6291602338901","stop_lon":"3.8615809194992"},{"stop_id":"41239","name":"H\u00f4pital Lapeyronie","stop_lat":"43.6316686730378","stop_lon":"3.85260054534845"},{"stop_id":"41241","name":"Occitanie","stop_lat":"43.6346569114579","stop_lon":"3.84848396836494"},{"stop_id":"41243","name":"Ch\u00e2teau d'\u00d4","stop_lat":"43.6314152645895","stop_lon":"3.8430638291649"},{"stop_id":"41245","name":"Malbosc","stop_lat":"43.6346081347455","stop_lon":"3.83323386788882"},{"stop_id":"41247","name":"Eurom\u00e9decine","stop_lat":"43.638999857086","stop_lon":"3.82767976521226"},{"stop_id":"41249","name":"Hauts de Massane","stop_lat":"43.6363711124574","stop_lon":"3.82272196301699"},{"stop_id":"41251","name":"Saint-Paul","stop_lat":"43.6306854019139","stop_lon":"3.82106408334805"},{"stop_id":"41253","name":"Halles de la Paillade","stop_lat":"43.6275702949051","stop_lon":"3.81746841608473"},{"stop_id":"41261","name":"Place de France","stop_lat":"43.6037518992763","stop_lon":"3.91571745995785"},{"stop_id":"41263","name":"Stade de la Mosson","stop_lat":"43.6212967443061","stop_lon":"3.81738000526255"}],"routes":[{"stop_id":"41201","stop_name":"Odysseum","partiel":"0","stop_order":"1","direction":"Vers Mosson"},{"stop_id":"41261","stop_name":"Place de France","partiel":"0","stop_order":"2","direction":"Vers Mosson"},{"stop_id":"41203","stop_name":"Mill\u00e9naire","partiel":"0","stop_order":"3","direction":"Vers Mosson"},{"stop_id":"41205","stop_name":"Mondial 98","partiel":"0","stop_order":"4","direction":"Vers Mosson"},{"stop_id":"41207","stop_name":"Port Marianne","partiel":"0","stop_order":"5","direction":"Vers Mosson"},{"stop_id":"41209","stop_name":"Moular\u00e8s (H\u00f4tel de Ville)","partiel":"0","stop_order":"6","direction":"Vers Mosson"},{"stop_id":"41211","stop_name":"Rives du Lez","partiel":"0","stop_order":"7","direction":"Vers Mosson"},{"stop_id":"41213","stop_name":"Place de l'Europe","partiel":"0","stop_order":"8","direction":"Vers Mosson"},{"stop_id":"41215","stop_name":"L\u00e9on Blum","partiel":"0","stop_order":"9","direction":"Vers Mosson"},{"stop_id":"41217","stop_name":"Antigone","partiel":"0","stop_order":"10","direction":"Vers Mosson"},{"stop_id":"41218","stop_name":"Du Guesclin","partiel":"0","stop_order":"11","direction":"Vers Mosson"},{"stop_id":"41221","stop_name":"Gare Saint-Roch","partiel":"0","stop_order":"12","direction":"Vers Mosson"},{"stop_id":"41223","stop_name":"Com\u00e9die","partiel":"0","stop_order":"13","direction":"Vers Mosson"},{"stop_id":"41225","stop_name":"Corum","partiel":"0","stop_order":"14","direction":"Vers Mosson"},{"stop_id":"41227","stop_name":"Louis Blanc","partiel":"0","stop_order":"15","direction":"Vers Mosson"},{"stop_id":"41229","stop_name":"Place Albert 1er","partiel":"0","stop_order":"16","direction":"Vers Mosson"},{"stop_id":"41231","stop_name":"Stade Philippid\u00e8s","partiel":"0","stop_order":"17","direction":"Vers Mosson"},{"stop_id":"41233","stop_name":"Boutonnet","partiel":"0","stop_order":"18","direction":"Vers Mosson"},{"stop_id":"41235","stop_name":"Saint-\u00c9loi","partiel":"0","stop_order":"19","direction":"Vers Mosson"},{"stop_id":"41237","stop_name":"Universit\u00e9s des Sciences et Lettres","partiel":"0","stop_order":"20","direction":"Vers Mosson"},{"stop_id":"41239","stop_name":"H\u00f4pital Lapeyronie","partiel":"0","stop_order":"21","direction":"Vers Mosson"},{"stop_id":"41241","stop_name":"Occitanie","partiel":"0","stop_order":"22","direction":"Vers Mosson"},{"stop_id":"41243","stop_name":"Ch\u00e2teau d'\u00d4","partiel":"1","stop_order":"23","direction":"Vers Mosson"},{"stop_id":"41245","stop_name":"Malbosc","partiel":"1","stop_order":"24","direction":"Vers Mosson"},{"stop_id":"41247","stop_name":"Eurom\u00e9decine","partiel":"1","stop_order":"25","direction":"Vers Mosson"},{"stop_id":"41249","stop_name":"Hauts de Massane","partiel":"1","stop_order":"26","direction":"Vers Mosson"},{"stop_id":"41251","stop_name":"Saint-Paul","partiel":"1","stop_order":"27","direction":"Vers Mosson"},{"stop_id":"41253","stop_name":"Halles de la Paillade","partiel":"1","stop_order":"28","direction":"Vers Mosson"},{"stop_id":"41263","stop_name":"Stade de la Mosson","partiel":"1","stop_order":"29","direction":"Vers Mosson"},{"stop_id":"41101","stop_name":"Mosson","partiel":"1","stop_order":"30","direction":"Vers Mosson"},{"stop_id":"41101","stop_name":"Mosson","partiel":"0","stop_order":"1","direction":"Vers Odysseum"},{"stop_id":"41163","stop_name":"Stade de la Mosson","partiel":"0","stop_order":"2","direction":"Vers Odysseum"},{"stop_id":"41103","stop_name":"Halles de la Paillade","partiel":"0","stop_order":"3","direction":"Vers Odysseum"},{"stop_id":"41105","stop_name":"Saint-Paul","partiel":"0","stop_order":"4","direction":"Vers Odysseum"},{"stop_id":"41107","stop_name":"Hauts de Massane","partiel":"0","stop_order":"5","direction":"Vers Odysseum"},{"stop_id":"41109","stop_name":"Eurom\u00e9decine","partiel":"0","stop_order":"6","direction":"Vers Odysseum"},{"stop_id":"41111","stop_name":"Malbosc","partiel":"0","stop_order":"7","direction":"Vers Odysseum"},{"stop_id":"41113","stop_name":"Ch\u00e2teau d'\u00d4","partiel":"0","stop_order":"8","direction":"Vers Odysseum"},{"stop_id":"41115","stop_name":"Occitanie","partiel":"0","stop_order":"9","direction":"Vers Odysseum"},{"stop_id":"41117","stop_name":"H\u00f4pital Lapeyronie","partiel":"0","stop_order":"10","direction":"Vers Odysseum"},{"stop_id":"41119","stop_name":"Universit\u00e9s des Sciences et Lettres","partiel":"0","stop_order":"11","direction":"Vers Odysseum"},{"stop_id":"41121","stop_name":"Saint-\u00c9loi","partiel":"0","stop_order":"12","direction":"Vers Odysseum"},{"stop_id":"41123","stop_name":"Boutonnet","partiel":"0","stop_order":"13","direction":"Vers Odysseum"},{"stop_id":"41125","stop_name":"Stade Philippid\u00e8s","partiel":"0","stop_order":"14","direction":"Vers Odysseum"},{"stop_id":"41127","stop_name":"Place Albert 1er","partiel":"0","stop_order":"15","direction":"Vers Odysseum"},{"stop_id":"41129","stop_name":"Louis Blanc","partiel":"0","stop_order":"16","direction":"Vers Odysseum"},{"stop_id":"41131","stop_name":"Corum","partiel":"0","stop_order":"17","direction":"Vers Odysseum"},{"stop_id":"41133","stop_name":"Com\u00e9die","partiel":"0","stop_order":"18","direction":"Vers Odysseum"},{"stop_id":"41135","stop_name":"Gare Saint-Roch","partiel":"0","stop_order":"19","direction":"Vers Odysseum"},{"stop_id":"41138","stop_name":"Du Guesclin","partiel":"0","stop_order":"20","direction":"Vers Odysseum"},{"stop_id":"41139","stop_name":"Antigone","partiel":"0","stop_order":"21","direction":"Vers Odysseum"},{"stop_id":"41141","stop_name":"L\u00e9on Blum","partiel":"0","stop_order":"22","direction":"Vers Odysseum"},{"stop_id":"41143","stop_name":"Place de l'Europe","partiel":"1","stop_order":"23","direction":"Vers Odysseum"},{"stop_id":"41145","stop_name":"Rives du Lez","partiel":"1","stop_order":"24","direction":"Vers Odysseum"},{"stop_id":"41147","stop_name":"Moular\u00e8s (H\u00f4tel de Ville)","partiel":"1","stop_order":"25","direction":"Vers Odysseum"},{"stop_id":"41149","stop_name":"Port Marianne","partiel":"1","stop_order":"26","direction":"Vers Odysseum"},{"stop_id":"41151","stop_name":"Mondial 98","partiel":"1","stop_order":"27","direction":"Vers Odysseum"},{"stop_id":"41153","stop_name":"Mill\u00e9naire","partiel":"1","stop_order":"28","direction":"Vers Odysseum"},{"stop_id":"41161","stop_name":"Place de France","partiel":"1","stop_order":"29","direction":"Vers Odysseum"},{"stop_id":"41155","stop_name":"Odysseum","partiel":"1","stop_order":"30","direction":"Vers Odysseum"}]},{"route_number":"2","color":"F29400","picto":"L2.png","stops":[{"stop_id":"41133","name":"Com\u00e9die","stop_lat":"43.6083711439975","stop_lon":"3.87968246864816"},{"stop_id":"41135","name":"Gare Saint-Roch","stop_lat":"43.6057394168241","stop_lon":"3.8801557150493"},{"stop_id":"41221","name":"Gare Saint-Roch","stop_lat":"43.6057660224829","stop_lon":"3.88018117619871"},{"stop_id":"41223","name":"Com\u00e9die","stop_lat":"43.6083614522908","stop_lon":"3.87973169370189"},{"stop_id":"42101","name":"Saint-Jean de V\u00e9das Centre","stop_lat":"43.5748036079191","stop_lon":"3.83043159629415"},{"stop_id":"42103","name":"Saint-Jean le Sec","stop_lat":"43.5705875344994","stop_lon":"3.83757873266956"},{"stop_id":"42105","name":"La Condamine","stop_lat":"43.5716010011206","stop_lon":"3.84420752480811"},{"stop_id":"42107","name":"Victoire 2","stop_lat":"43.5747710723995","stop_lon":"3.84958307342985"},{"stop_id":"42111","name":"Sabines","stop_lat":"43.5839372825969","stop_lon":"3.86004033803157"},{"stop_id":"42113","name":"Villeneuve d'Angoul\u00eame","stop_lat":"43.5887380443422","stop_lon":"3.86574602237706"},{"stop_id":"42115","name":"Croix d'Argent","stop_lat":"43.5923683239865","stop_lon":"3.86648631655454"},{"stop_id":"42117","name":"Mas Drevon","stop_lat":"43.5954674386514","stop_lon":"3.86791750224146"},{"stop_id":"42119","name":"Lemasson","stop_lat":"43.5937104131978","stop_lon":"3.87327545449656"},{"stop_id":"42121","name":"Saint-Cl\u00e9ophas","stop_lat":"43.5949905836087","stop_lon":"3.87617944402288"},{"stop_id":"42123","name":"Nouveau Saint-Roch","stop_lat":"43.5994929707284","stop_lon":"3.87564516827548"},{"stop_id":"42125","name":"Rondelet","stop_lat":"43.6030802177349","stop_lon":"3.87624899612494"},{"stop_id":"42141","name":"Corum","stop_lat":"43.6143004086941","stop_lon":"3.88184706980008"},{"stop_id":"42143","name":"Beaux-Arts","stop_lat":"43.6169999109354","stop_lon":"3.88355341465341"},{"stop_id":"42145","name":"Jeu de Mail des Abb\u00e9s","stop_lat":"43.6202104463057","stop_lon":"3.8840982200545"},{"stop_id":"42147","name":"Aiguelongue","stop_lat":"43.6262207438229","stop_lon":"3.88311015145899"},{"stop_id":"42149","name":"Saint-Lazare","stop_lat":"43.6266187470306","stop_lon":"3.88859098242226"},{"stop_id":"42151","name":"Charles de Gaulle","stop_lat":"43.6285551805181","stop_lon":"3.89771531053076"},{"stop_id":"42153","name":"Clairval","stop_lat":"43.6301926964308","stop_lon":"3.90259928952745"},{"stop_id":"42155","name":"La Galine","stop_lat":"43.6314568933244","stop_lon":"3.90903276236359"},{"stop_id":"42157","name":"Centurions","stop_lat":"43.6327979757423","stop_lon":"3.91571619886334"},{"stop_id":"42159","name":"Notre-Dame de Sablassou","stop_lat":"43.6342394895382","stop_lon":"3.9222665979465"},{"stop_id":"42163","name":"Aube Rouge","stop_lat":"43.6385424965602","stop_lon":"3.92493604745572"},{"stop_id":"42165","name":"Via Domitia","stop_lat":"43.6465326691418","stop_lon":"3.92996184330354"},{"stop_id":"42167","name":"Georges Pompidou","stop_lat":"43.6492711127252","stop_lon":"3.92101273052626"},{"stop_id":"42169","name":"Jacou","stop_lat":"43.6546040775665","stop_lon":"3.91287729877921"},{"stop_id":"42203","name":"Georges Pompidou","stop_lat":"43.6492626696601","stop_lon":"3.92097535407436"},{"stop_id":"42205","name":"Via Domitia","stop_lat":"43.6465335797711","stop_lon":"3.929899968006"},{"stop_id":"42207","name":"Aube Rouge","stop_lat":"43.6385340549184","stop_lon":"3.92489867744832"},{"stop_id":"42211","name":"Notre-Dame de Sablassou","stop_lat":"43.6342668108514","stop_lon":"3.92224260173059"},{"stop_id":"42213","name":"Centurions","stop_lat":"43.6328251150762","stop_lon":"3.91570457225184"},{"stop_id":"42215","name":"La Galine","stop_lat":"43.6314840319125","stop_lon":"3.9090211328481"},{"stop_id":"42217","name":"Clairval","stop_lat":"43.6302198343012","stop_lon":"3.90258765721135"},{"stop_id":"42219","name":"Charles de Gaulle","stop_lat":"43.6285736884137","stop_lon":"3.89767868803626"},{"stop_id":"42221","name":"Saint-Lazare","stop_lat":"43.6266460607155","stop_lon":"3.88856697329696"},{"stop_id":"42223","name":"Aiguelongue","stop_lat":"43.6262568658232","stop_lon":"3.88309875403403"},{"stop_id":"42225","name":"Jeu de Mail des Abb\u00e9s","stop_lat":"43.6202111538231","stop_lon":"3.88404874205847"},{"stop_id":"42227","name":"Beaux-Arts","stop_lat":"43.6170184138744","stop_lon":"3.88351679498035"},{"stop_id":"42229","name":"Corum","stop_lat":"43.6142642871554","stop_lon":"3.8818584656304"},{"stop_id":"42245","name":"Rondelet","stop_lat":"43.6030784578395","stop_lon":"3.87637265425441"},{"stop_id":"42247","name":"Nouveau Saint-Roch","stop_lat":"43.5995475912133","stop_lon":"3.87559716042538"},{"stop_id":"42249","name":"Saint-Cl\u00e9ophas","stop_lat":"43.5950092597076","stop_lon":"3.87613047200401"},{"stop_id":"42251","name":"Lemasson","stop_lat":"43.5937370202297","stop_lon":"3.87330090708024"},{"stop_id":"42253","name":"Mas Drevon","stop_lat":"43.5954859359917","stop_lon":"3.86788089130808"},{"stop_id":"42255","name":"Croix d'Argent","stop_lat":"43.5923690234347","stop_lon":"3.86643686245552"},{"stop_id":"42257","name":"Villeneuve d'Angoul\u00eame","stop_lat":"43.5887387434499","stop_lon":"3.86569657141145"},{"stop_id":"42259","name":"Sabines","stop_lat":"43.5839111950111","stop_lon":"3.85997781084598"},{"stop_id":"42263","name":"Victoire 2","stop_lat":"43.5748077082151","stop_lon":"3.84953458574525"},{"stop_id":"42265","name":"La Condamine","stop_lat":"43.5716010011206","stop_lon":"3.84420752480811"},{"stop_id":"42267","name":"Saint-Jean le Sec","stop_lat":"43.5706234785942","stop_lon":"3.83757967647181"}],"routes":[{"stop_id":"42101","stop_name":"Saint-Jean de V\u00e9das Centre","partiel":"1","stop_order":"1","direction":"Vers Jacou"},{"stop_id":"42103","stop_name":"Saint-Jean le Sec","partiel":"1","stop_order":"2","direction":"Vers Jacou"},{"stop_id":"42105","stop_name":"La Condamine","partiel":"1","stop_order":"3","direction":"Vers Jacou"},{"stop_id":"42107","stop_name":"Victoire 2","partiel":"1","stop_order":"4","direction":"Vers Jacou"},{"stop_id":"42111","stop_name":"Sabines","partiel":"0","stop_order":"5","direction":"Vers Jacou"},{"stop_id":"42113","stop_name":"Villeneuve d'Angoul\u00eame","partiel":"0","stop_order":"6","direction":"Vers Jacou"},{"stop_id":"42115","stop_name":"Croix d'Argent","partiel":"0","stop_order":"7","direction":"Vers Jacou"},{"stop_id":"42117","stop_name":"Mas Drevon","partiel":"0","stop_order":"8","direction":"Vers Jacou"},{"stop_id":"42119","stop_name":"Lemasson","partiel":"0","stop_order":"9","direction":"Vers Jacou"},{"stop_id":"42121","stop_name":"Saint-Cl\u00e9ophas","partiel":"0","stop_order":"10","direction":"Vers Jacou"},{"stop_id":"42123","stop_name":"Nouveau Saint-Roch","partiel":"0","stop_order":"11","direction":"Vers Jacou"},{"stop_id":"42125","stop_name":"Rondelet","partiel":"0","stop_order":"12","direction":"Vers Jacou"},{"stop_id":"41221","stop_name":"Gare Saint-Roch","partiel":"0","stop_order":"13","direction":"Vers Jacou"},{"stop_id":"41223","stop_name":"Com\u00e9die","partiel":"0","stop_order":"14","direction":"Vers Jacou"},{"stop_id":"42141","stop_name":"Corum","partiel":"0","stop_order":"15","direction":"Vers Jacou"},{"stop_id":"42143","stop_name":"Beaux-Arts","partiel":"0","stop_order":"16","direction":"Vers Jacou"},{"stop_id":"42145","stop_name":"Jeu de Mail des Abb\u00e9s","partiel":"0","stop_order":"17","direction":"Vers Jacou"},{"stop_id":"42147","stop_name":"Aiguelongue","partiel":"0","stop_order":"18","direction":"Vers Jacou"},{"stop_id":"42149","stop_name":"Saint-Lazare","partiel":"0","stop_order":"19","direction":"Vers Jacou"},{"stop_id":"42151","stop_name":"Charles de Gaulle","partiel":"0","stop_order":"20","direction":"Vers Jacou"},{"stop_id":"42153","stop_name":"Clairval","partiel":"0","stop_order":"21","direction":"Vers Jacou"},{"stop_id":"42155","stop_name":"La Galine","partiel":"0","stop_order":"22","direction":"Vers Jacou"},{"stop_id":"42157","stop_name":"Centurions","partiel":"0","stop_order":"23","direction":"Vers Jacou"},{"stop_id":"42159","stop_name":"Notre-Dame de Sablassou","partiel":"0","stop_order":"24","direction":"Vers Jacou"},{"stop_id":"42163","stop_name":"Aube Rouge","partiel":"1","stop_order":"25","direction":"Vers Jacou"},{"stop_id":"42165","stop_name":"Via Domitia","partiel":"1","stop_order":"26","direction":"Vers Jacou"},{"stop_id":"42167","stop_name":"Georges Pompidou","partiel":"1","stop_order":"27","direction":"Vers Jacou"},{"stop_id":"42169","stop_name":"Jacou","partiel":"1","stop_order":"28","direction":"Vers Jacou"},{"stop_id":"42169","stop_name":"Jacou","partiel":"1","stop_order":"1","direction":"Vers Saint-Jean de V\u00e9das Centre"},{"stop_id":"42203","stop_name":"Georges Pompidou","partiel":"1","stop_order":"2","direction":"Vers Saint-Jean de V\u00e9das Centre"},{"stop_id":"42205","stop_name":"Via Domitia","partiel":"1","stop_order":"3","direction":"Vers Saint-Jean de V\u00e9das Centre"},{"stop_id":"42207","stop_name":"Aube Rouge","partiel":"1","stop_order":"4","direction":"Vers Saint-Jean de V\u00e9das Centre"},{"stop_id":"42211","stop_name":"Notre-Dame de Sablassou","partiel":"0","stop_order":"5","direction":"Vers Saint-Jean de V\u00e9das Centre"},{"stop_id":"42213","stop_name":"Centurions","partiel":"0","stop_order":"6","direction":"Vers Saint-Jean de V\u00e9das Centre"},{"stop_id":"42215","stop_name":"La Galine","partiel":"0","stop_order":"7","direction":"Vers Saint-Jean de V\u00e9das Centre"},{"stop_id":"42217","stop_name":"Clairval","partiel":"0","stop_order":"8","direction":"Vers Saint-Jean de V\u00e9das Centre"},{"stop_id":"42219","stop_name":"Charles de Gaulle","partiel":"0","stop_order":"9","direction":"Vers Saint-Jean de V\u00e9das Centre"},{"stop_id":"42221","stop_name":"Saint-Lazare","partiel":"0","stop_order":"10","direction":"Vers Saint-Jean de V\u00e9das Centre"},{"stop_id":"42223","stop_name":"Aiguelongue","partiel":"0","stop_order":"11","direction":"Vers Saint-Jean de V\u00e9das Centre"},{"stop_id":"42225","stop_name":"Jeu de Mail des Abb\u00e9s","partiel":"0","stop_order":"12","direction":"Vers Saint-Jean de V\u00e9das Centre"},{"stop_id":"42227","stop_name":"Beaux-Arts","partiel":"0","stop_order":"13","direction":"Vers Saint-Jean de V\u00e9das Centre"},{"stop_id":"42229","stop_name":"Corum","partiel":"0","stop_order":"14","direction":"Vers Saint-Jean de V\u00e9das Centre"},{"stop_id":"41133","stop_name":"Com\u00e9die","partiel":"0","stop_order":"15","direction":"Vers Saint-Jean de V\u00e9das Centre"},{"stop_id":"41135","stop_name":"Gare Saint-Roch","partiel":"0","stop_order":"16","direction":"Vers Saint-Jean de V\u00e9das Centre"},{"stop_id":"42245","stop_name":"Rondelet","partiel":"0","stop_order":"17","direction":"Vers Saint-Jean de V\u00e9das Centre"},{"stop_id":"42247","stop_name":"Nouveau Saint-Roch","partiel":"0","stop_order":"18","direction":"Vers Saint-Jean de V\u00e9das Centre"},{"stop_id":"42249","stop_name":"Saint-Cl\u00e9ophas","partiel":"0","stop_order":"19","direction":"Vers Saint-Jean de V\u00e9das Centre"},{"stop_id":"42251","stop_name":"Lemasson","partiel":"0","stop_order":"20","direction":"Vers Saint-Jean de V\u00e9das Centre"},{"stop_id":"42253","stop_name":"Mas Drevon","partiel":"0","stop_order":"21","direction":"Vers Saint-Jean de V\u00e9das Centre"},{"stop_id":"42255","stop_name":"Croix d'Argent","partiel":"0","stop_order":"22","direction":"Vers Saint-Jean de V\u00e9das Centre"},{"stop_id":"42257","stop_name":"Villeneuve d'Angoul\u00eame","partiel":"0","stop_order":"23","direction":"Vers Saint-Jean de V\u00e9das Centre"},{"stop_id":"42259","stop_name":"Sabines","partiel":"0","stop_order":"24","direction":"Vers Saint-Jean de V\u00e9das Centre"},{"stop_id":"42263","stop_name":"Victoire 2","partiel":"1","stop_order":"25","direction":"Vers Saint-Jean de V\u00e9das Centre"},{"stop_id":"42265","stop_name":"La Condamine","partiel":"1","stop_order":"26","direction":"Vers Saint-Jean de V\u00e9das Centre"},{"stop_id":"42267","stop_name":"Saint-Jean le Sec","partiel":"1","stop_order":"27","direction":"Vers Saint-Jean de V\u00e9das Centre"},{"stop_id":"42101","stop_name":"Saint-Jean de V\u00e9das Centre","partiel":"1","stop_order":"28","direction":"Vers Saint-Jean de V\u00e9das Centre"}]},{"route_number":"3","color":"CBD300","picto":"L3.png","stops":[{"stop_id":"41147","name":"Moular\u00e8s (H\u00f4tel de Ville)","stop_lat":"43.6007299548366","stop_lon":"3.89535927969668"},{"stop_id":"41149","name":"Port Marianne","stop_lat":"43.6015763562532","stop_lon":"3.89962538372382"},{"stop_id":"41207","name":"Port Marianne","stop_lat":"43.6015648147091","stop_lon":"3.89917973718665"},{"stop_id":"41209","name":"Moular\u00e8s (H\u00f4tel de Ville)","stop_lat":"43.6007378719135","stop_lon":"3.89543371634385"},{"stop_id":"42129","name":"Place Carnot","stop_lat":"43.6038310309685","stop_lon":"3.88411227333693"},{"stop_id":"42131","name":"Voltaire","stop_lat":"43.6035533065908","stop_lon":"3.88906539744448"},{"stop_id":"42133","name":"Rives du Lez","stop_lat":"43.6039440669125","stop_lon":"3.89377691614059"},{"stop_id":"42237","name":"Rives du Lez","stop_lat":"43.6039889975652","stop_lon":"3.89377814079108"},{"stop_id":"42239","name":"Voltaire","stop_lat":"43.6035799101074","stop_lon":"3.88909086176948"},{"stop_id":"42241","name":"Place Carnot","stop_lat":"43.6038306772025","stop_lon":"3.88413700523998"},{"stop_id":"43101","name":"Juvignac","stop_lat":"43.6174850753856","stop_lon":"3.81014168845545"},{"stop_id":"43103","name":"Mosson","stop_lat":"43.616223022779","stop_lon":"3.81961176245642"},{"stop_id":"43105","name":"Celleneuve","stop_lat":"43.6153633920295","stop_lon":"3.82591207529301"},{"stop_id":"43107","name":"Pilory","stop_lat":"43.6193982975347","stop_lon":"3.83188253488683"},{"stop_id":"43109","name":"H\u00f4tel du D\u00e9partement","stop_lat":"43.6218017033289","stop_lon":"3.83490295770799"},{"stop_id":"43111","name":"Pergola","stop_lat":"43.6176378844592","stop_lon":"3.83955756794993"},{"stop_id":"43113","name":"Tonnelles","stop_lat":"43.6134870583418","stop_lon":"3.8393864922483"},{"stop_id":"43115","name":"Jules Guesde","stop_lat":"43.6114734587923","stop_lon":"3.84648469366853"},{"stop_id":"43117","name":"Astruc","stop_lat":"43.6101901656071","stop_lon":"3.85467816669653"},{"stop_id":"43119","name":"Les Arceaux","stop_lat":"43.6098956946996","stop_lon":"3.86219250369623"},{"stop_id":"43121","name":"Plan Cabanes","stop_lat":"43.608637436434","stop_lon":"3.86789938195901"},{"stop_id":"43123","name":"Saint-Denis","stop_lat":"43.6056690419268","stop_lon":"3.87373320298287"},{"stop_id":"43125","name":"Observatoire","stop_lat":"43.6064472174367","stop_lon":"3.87653767936612"},{"stop_id":"43127","name":"Gare Saint-Roch","stop_lat":"43.605351081248","stop_lon":"3.87965038044627"},{"stop_id":"43145","name":"Pablo Picasso","stop_lat":"43.5978817223193","stop_lon":"3.90334649118577"},{"stop_id":"43149","name":"Boirargues","stop_lat":"43.5827431376295","stop_lon":"3.92553702357343"},{"stop_id":"43151","name":"EcoP\u00f4le","stop_lat":"43.5781554165651","stop_lon":"3.93489368914411"},{"stop_id":"43153","name":"Parc Expo","stop_lat":"43.5729914003502","stop_lon":"3.94546909162006"},{"stop_id":"43155","name":"P\u00e9rols Centre","stop_lat":"43.565552992202","stop_lon":"3.9571773613321"},{"stop_id":"43161","name":"Cougourlude","stop_lat":"43.5713566155736","stop_lon":"3.91426615862094"},{"stop_id":"43201","name":"P\u00e9rols \u00c9tang de l'Or","stop_lat":"43.5580406963095","stop_lon":"3.9635652386215"},{"stop_id":"43203","name":"P\u00e9rols Centre","stop_lat":"43.5655333536454","stop_lon":"3.95728806877166"},{"stop_id":"43205","name":"Parc Expo","stop_lat":"43.572981311176","stop_lon":"3.94554299318903"},{"stop_id":"43207","name":"EcoP\u00f4le","stop_lat":"43.5781633062941","stop_lon":"3.93496810185242"},{"stop_id":"43209","name":"Boirargues","stop_lat":"43.5827424111593","stop_lon":"3.92558646860367"},{"stop_id":"43213","name":"Pablo Picasso","stop_lat":"43.5979421175295","stop_lon":"3.90352132068884"},{"stop_id":"43231","name":"Gare Saint-Roch","stop_lat":"43.6052434235599","stop_lon":"3.87963510162042"},{"stop_id":"43233","name":"Observatoire","stop_lat":"43.6065192829458","stop_lon":"3.87652725063757"},{"stop_id":"43235","name":"Saint-Denis","stop_lat":"43.6059623971558","stop_lon":"3.87333284741337"},{"stop_id":"43237","name":"Plan Cabanes","stop_lat":"43.6085719073046","stop_lon":"3.868083201233"},{"stop_id":"43239","name":"Les Arceaux","stop_lat":"43.6099793607256","stop_lon":"3.86199678596641"},{"stop_id":"43241","name":"Astruc","stop_lat":"43.6102413067142","stop_lon":"3.85487747840306"},{"stop_id":"43243","name":"Jules Guesde","stop_lat":"43.6115073328732","stop_lon":"3.84663405649798"},{"stop_id":"43245","name":"Tonnelles","stop_lat":"43.6136209942391","stop_lon":"3.83945187947761"},{"stop_id":"43247","name":"Pergola","stop_lat":"43.6181727167808","stop_lon":"3.83923755077308"},{"stop_id":"43249","name":"H\u00f4tel du D\u00e9partement","stop_lat":"43.6220241364681","stop_lon":"3.83506966179401"},{"stop_id":"43251","name":"Pilory","stop_lat":"43.61957443555","stop_lon":"3.83214699993398"},{"stop_id":"43253","name":"Celleneuve","stop_lat":"43.6156061939827","stop_lon":"3.82590603272639"},{"stop_id":"43255","name":"Mosson","stop_lat":"43.616257781698","stop_lon":"3.81969927757021"},{"stop_id":"43259","name":"Lattes Centre","stop_lat":"43.5707492411912","stop_lon":"3.90534755848525"},{"stop_id":"43261","name":"Cougourlude","stop_lat":"43.5713390045051","stop_lon":"3.91424094494377"}],"routes":[{"stop_id":"43201","stop_name":"P\u00e9rols \u00c9tang de l'Or","partiel":"0","stop_order":"1","direction":"De P\u00e9rols vers Juvignac"},{"stop_id":"43203","stop_name":"P\u00e9rols Centre","partiel":"0","stop_order":"2","direction":"De P\u00e9rols vers Juvignac"},{"stop_id":"43205","stop_name":"Parc Expo","partiel":"0","stop_order":"3","direction":"De P\u00e9rols vers Juvignac"},{"stop_id":"43207","stop_name":"EcoP\u00f4le","partiel":"0","stop_order":"4","direction":"De P\u00e9rols vers Juvignac"},{"stop_id":"43259","stop_name":"Lattes Centre","partiel":"0","stop_order":"5","direction":"De Lattes vers Juvignac"},{"stop_id":"43261","stop_name":"Cougourlude","partiel":"0","stop_order":"6","direction":"De Lattes vers Juvignac"},{"stop_id":"43209","stop_name":"Boirargues","partiel":"0","stop_order":"7","direction":"De P\u00e9rols vers Juvignac"},{"stop_id":"43213","stop_name":"Pablo Picasso","partiel":"0","stop_order":"8","direction":"De P\u00e9rols vers Juvignac"},{"stop_id":"41207","stop_name":"Port Marianne","partiel":"0","stop_order":"9","direction":"De P\u00e9rols vers Juvignac"},{"stop_id":"41209","stop_name":"Moular\u00e8s (H\u00f4tel de Ville)","partiel":"0","stop_order":"10","direction":"De P\u00e9rols vers Juvignac"},{"stop_id":"42237","stop_name":"Rives du Lez","partiel":"0","stop_order":"11","direction":"De P\u00e9rols vers Juvignac"},{"stop_id":"42239","stop_name":"Voltaire","partiel":"0","stop_order":"12","direction":"De P\u00e9rols vers Juvignac"},{"stop_id":"42241","stop_name":"Place Carnot","partiel":"0","stop_order":"13","direction":"De P\u00e9rols vers Juvignac"},{"stop_id":"43127","stop_name":"Gare Saint-Roch","partiel":"0","stop_order":"14","direction":"De P\u00e9rols vers Juvignac"},{"stop_id":"43233","stop_name":"Observatoire","partiel":"0","stop_order":"15","direction":"De P\u00e9rols vers Juvignac"},{"stop_id":"43235","stop_name":"Saint-Denis","partiel":"0","stop_order":"16","direction":"De P\u00e9rols vers Juvignac"},{"stop_id":"43237","stop_name":"Plan Cabanes","partiel":"0","stop_order":"17","direction":"De P\u00e9rols vers Juvignac"},{"stop_id":"43239","stop_name":"Les Arceaux","partiel":"0","stop_order":"18","direction":"De P\u00e9rols vers Juvignac"},{"stop_id":"43241","stop_name":"Astruc","partiel":"0","stop_order":"19","direction":"De P\u00e9rols vers Juvignac"},{"stop_id":"43243","stop_name":"Jules Guesde","partiel":"0","stop_order":"20","direction":"De P\u00e9rols vers Juvignac"},{"stop_id":"43245","stop_name":"Tonnelles","partiel":"0","stop_order":"21","direction":"De P\u00e9rols vers Juvignac"},{"stop_id":"43247","stop_name":"Pergola","partiel":"0","stop_order":"22","direction":"De P\u00e9rols vers Juvignac"},{"stop_id":"43249","stop_name":"H\u00f4tel du D\u00e9partement","partiel":"0","stop_order":"23","direction":"De P\u00e9rols vers Juvignac"},{"stop_id":"43251","stop_name":"Pilory","partiel":"0","stop_order":"24","direction":"De P\u00e9rols vers Juvignac"},{"stop_id":"43253","stop_name":"Celleneuve","partiel":"0","stop_order":"25","direction":"De P\u00e9rols vers Juvignac"},{"stop_id":"43255","stop_name":"Mosson","partiel":"0","stop_order":"26","direction":"De P\u00e9rols vers Juvignac"},{"stop_id":"43101","stop_name":"Juvignac","partiel":"1","stop_order":"27","direction":"De P\u00e9rols vers Juvignac"},{"stop_id":"43101","stop_name":"Juvignac","partiel":"1","stop_order":"1","direction":"Vers Lattes Centre"},{"stop_id":"43103","stop_name":"Mosson","partiel":"0","stop_order":"2","direction":"Vers Lattes Centre"},{"stop_id":"43105","stop_name":"Celleneuve","partiel":"0","stop_order":"3","direction":"Vers Lattes Centre"},{"stop_id":"43107","stop_name":"Pilory","partiel":"0","stop_order":"4","direction":"Vers Lattes Centre"},{"stop_id":"43109","stop_name":"H\u00f4tel du D\u00e9partement","partiel":"0","stop_order":"5","direction":"Vers Lattes Centre"},{"stop_id":"43111","stop_name":"Pergola","partiel":"0","stop_order":"6","direction":"Vers Lattes Centre"},{"stop_id":"43113","stop_name":"Tonnelles","partiel":"0","stop_order":"7","direction":"Vers Lattes Centre"},{"stop_id":"43115","stop_name":"Jules Guesde","partiel":"0","stop_order":"8","direction":"Vers Lattes Centre"},{"stop_id":"43117","stop_name":"Astruc","partiel":"0","stop_order":"9","direction":"Vers Lattes Centre"},{"stop_id":"43119","stop_name":"Les Arceaux","partiel":"0","stop_order":"10","direction":"Vers Lattes Centre"},{"stop_id":"43121","stop_name":"Plan Cabanes","partiel":"0","stop_order":"11","direction":"Vers Lattes Centre"},{"stop_id":"43123","stop_name":"Saint-Denis","partiel":"0","stop_order":"12","direction":"Vers Lattes Centre"},{"stop_id":"43125","stop_name":"Observatoire","partiel":"0","stop_order":"13","direction":"Vers Lattes Centre"},{"stop_id":"43231","stop_name":"Gare Saint-Roch","partiel":"0","stop_order":"14","direction":"Vers Lattes Centre"},{"stop_id":"42129","stop_name":"Place Carnot","partiel":"0","stop_order":"15","direction":"Vers Lattes Centre"},{"stop_id":"42131","stop_name":"Voltaire","partiel":"0","stop_order":"16","direction":"Vers Lattes Centre"},{"stop_id":"42133","stop_name":"Rives du Lez","partiel":"0","stop_order":"17","direction":"Vers Lattes Centre"},{"stop_id":"41147","stop_name":"Moular\u00e8s (H\u00f4tel de Ville)","partiel":"0","stop_order":"18","direction":"Vers Lattes Centre"},{"stop_id":"41149","stop_name":"Port Marianne","partiel":"0","stop_order":"19","direction":"Vers Lattes Centre"},{"stop_id":"43145","stop_name":"Pablo Picasso","partiel":"0","stop_order":"20","direction":"Vers Lattes Centre"},{"stop_id":"43149","stop_name":"Boirargues","partiel":"0","stop_order":"21","direction":"Vers Lattes Centre"},{"stop_id":"43161","stop_name":"Cougourlude","partiel":"0","stop_order":"22","direction":"Vers Lattes Centre"},{"stop_id":"43259","stop_name":"Lattes Centre","partiel":"0","stop_order":"23","direction":"Vers Lattes Centre"},{"stop_id":"43101","stop_name":"Juvignac","partiel":"0","stop_order":"1","direction":"Vers  P\u00e9rols \u00c9tang de l'Or"},{"stop_id":"43103","stop_name":"Mosson","partiel":"0","stop_order":"2","direction":"Vers  P\u00e9rols \u00c9tang de l'Or"},{"stop_id":"43105","stop_name":"Celleneuve","partiel":"0","stop_order":"3","direction":"Vers  P\u00e9rols \u00c9tang de l'Or"},{"stop_id":"43107","stop_name":"Pilory","partiel":"0","stop_order":"4","direction":"Vers  P\u00e9rols \u00c9tang de l'Or"},{"stop_id":"43109","stop_name":"H\u00f4tel du D\u00e9partement","partiel":"0","stop_order":"5","direction":"Vers  P\u00e9rols \u00c9tang de l'Or"},{"stop_id":"43111","stop_name":"Pergola","partiel":"0","stop_order":"6","direction":"Vers  P\u00e9rols \u00c9tang de l'Or"},{"stop_id":"43113","stop_name":"Tonnelles","partiel":"0","stop_order":"7","direction":"Vers  P\u00e9rols \u00c9tang de l'Or"},{"stop_id":"43115","stop_name":"Jules Guesde","partiel":"0","stop_order":"8","direction":"Vers  P\u00e9rols \u00c9tang de l'Or"},{"stop_id":"43117","stop_name":"Astruc","partiel":"0","stop_order":"9","direction":"Vers  P\u00e9rols \u00c9tang de l'Or"},{"stop_id":"43119","stop_name":"Les Arceaux","partiel":"0","stop_order":"10","direction":"Vers  P\u00e9rols \u00c9tang de l'Or"},{"stop_id":"43121","stop_name":"Plan Cabanes","partiel":"0","stop_order":"11","direction":"Vers  P\u00e9rols \u00c9tang de l'Or"},{"stop_id":"43123","stop_name":"Saint-Denis","partiel":"0","stop_order":"12","direction":"Vers  P\u00e9rols \u00c9tang de l'Or"},{"stop_id":"43125","stop_name":"Observatoire","partiel":"0","stop_order":"13","direction":"Vers  P\u00e9rols \u00c9tang de l'Or"},{"stop_id":"43231","stop_name":"Gare Saint-Roch","partiel":"0","stop_order":"14","direction":"Vers  P\u00e9rols \u00c9tang de l'Or"},{"stop_id":"42129","stop_name":"Place Carnot","partiel":"0","stop_order":"15","direction":"Vers  P\u00e9rols \u00c9tang de l'Or"},{"stop_id":"42131","stop_name":"Voltaire","partiel":"0","stop_order":"16","direction":"Vers  P\u00e9rols \u00c9tang de l'Or"},{"stop_id":"42133","stop_name":"Rives du Lez","partiel":"0","stop_order":"17","direction":"Vers  P\u00e9rols \u00c9tang de l'Or"},{"stop_id":"41147","stop_name":"Moular\u00e8s (H\u00f4tel de Ville)","partiel":"0","stop_order":"18","direction":"Vers  P\u00e9rols \u00c9tang de l'Or"},{"stop_id":"41149","stop_name":"Port Marianne","partiel":"0","stop_order":"19","direction":"Vers  P\u00e9rols \u00c9tang de l'Or"},{"stop_id":"43145","stop_name":"Pablo Picasso","partiel":"0","stop_order":"20","direction":"Vers  P\u00e9rols \u00c9tang de l'Or"},{"stop_id":"43149","stop_name":"Boirargues","partiel":"0","stop_order":"21","direction":"Vers  P\u00e9rols \u00c9tang de l'Or"},{"stop_id":"43151","stop_name":"EcoP\u00f4le","partiel":"0","stop_order":"22","direction":"Vers  P\u00e9rols \u00c9tang de l'Or"},{"stop_id":"43153","stop_name":"Parc Expo","partiel":"0","stop_order":"23","direction":"Vers  P\u00e9rols \u00c9tang de l'Or"},{"stop_id":"43155","stop_name":"P\u00e9rols Centre","partiel":"0","stop_order":"24","direction":"Vers  P\u00e9rols \u00c9tang de l'Or"},{"stop_id":"43201","stop_name":"P\u00e9rols \u00c9tang de l'Or","partiel":"0","stop_order":"25","direction":"Vers  P\u00e9rols \u00c9tang de l'Or"},{"stop_id":"43209","stop_name":"Boirargues","partiel":"0","stop_order":"3","direction":"De Lattes vers Juvignac"},{"stop_id":"43213","stop_name":"Pablo Picasso","partiel":"0","stop_order":"4","direction":"De Lattes vers Juvignac"},{"stop_id":"41207","stop_name":"Port Marianne","partiel":"0","stop_order":"5","direction":"De Lattes vers Juvignac"},{"stop_id":"41209","stop_name":"Moular\u00e8s (H\u00f4tel de Ville)","partiel":"0","stop_order":"6","direction":"De Lattes vers Juvignac"},{"stop_id":"42237","stop_name":"Rives du Lez","partiel":"0","stop_order":"7","direction":"De Lattes vers Juvignac"},{"stop_id":"42239","stop_name":"Voltaire","partiel":"0","stop_order":"8","direction":"De Lattes vers Juvignac"},{"stop_id":"42241","stop_name":"Place Carnot","partiel":"0","stop_order":"9","direction":"De Lattes vers Juvignac"},{"stop_id":"43127","stop_name":"Gare Saint-Roch","partiel":"0","stop_order":"10","direction":"De Lattes vers Juvignac"},{"stop_id":"43233","stop_name":"Observatoire","partiel":"0","stop_order":"11","direction":"De Lattes vers Juvignac"},{"stop_id":"43235","stop_name":"Saint-Denis","partiel":"0","stop_order":"12","direction":"De Lattes vers Juvignac"},{"stop_id":"43237","stop_name":"Plan Cabanes","partiel":"0","stop_order":"13","direction":"De Lattes vers Juvignac"},{"stop_id":"43239","stop_name":"Les Arceaux","partiel":"0","stop_order":"14","direction":"De Lattes vers Juvignac"},{"stop_id":"43241","stop_name":"Astruc","partiel":"0","stop_order":"15","direction":"De Lattes vers Juvignac"},{"stop_id":"43243","stop_name":"Jules Guesde","partiel":"0","stop_order":"16","direction":"De Lattes vers Juvignac"},{"stop_id":"43245","stop_name":"Tonnelles","partiel":"0","stop_order":"17","direction":"De Lattes vers Juvignac"},{"stop_id":"43247","stop_name":"Pergola","partiel":"0","stop_order":"18","direction":"De Lattes vers Juvignac"},{"stop_id":"43249","stop_name":"H\u00f4tel du D\u00e9partement","partiel":"0","stop_order":"19","direction":"De Lattes vers Juvignac"},{"stop_id":"43251","stop_name":"Pilory","partiel":"0","stop_order":"20","direction":"De Lattes vers Juvignac"},{"stop_id":"43253","stop_name":"Celleneuve","partiel":"0","stop_order":"21","direction":"De Lattes vers Juvignac"},{"stop_id":"43255","stop_name":"Mosson","partiel":"0","stop_order":"22","direction":"De Lattes vers Juvignac"},{"stop_id":"43101","stop_name":"Juvignac","partiel":"1","stop_order":"23","direction":"De Lattes vers Juvignac"}]},{"route_number":"4","color":"582D22","picto":"L4.png","stops":[{"stop_id":"41127","name":"Place Albert 1er","stop_lat":"43.6164493475913","stop_lon":"3.87424603509102"},{"stop_id":"41129","name":"Louis Blanc","stop_lat":"43.6147460835895","stop_lon":"3.87833279432343"},{"stop_id":"41131","name":"Corum","stop_lat":"43.6142538878797","stop_lon":"3.88195716825633"},{"stop_id":"41143","name":"Place de l'Europe","stop_lat":"43.6071866399633","stop_lon":"3.89396427404087"},{"stop_id":"41145","name":"Rives du Lez","stop_lat":"43.6040712861004","stop_lon":"3.89493087057306"},{"stop_id":"41211","name":"Rives du Lez","stop_lat":"43.6040171912106","stop_lon":"3.89494176586073"},{"stop_id":"41213","name":"Place de l'Europe","stop_lat":"43.6073039939688","stop_lon":"3.89393035868125"},{"stop_id":"41225","name":"Corum","stop_lat":"43.6143069220478","stop_lon":"3.88202046807643"},{"stop_id":"41227","name":"Louis Blanc","stop_lat":"43.614736216221","stop_lon":"3.87839439343216"},{"stop_id":"41229","name":"Place Albert 1er","stop_lat":"43.6164038890181","stop_lon":"3.87428193165593"},{"stop_id":"42123","name":"Nouveau Saint-Roch","stop_lat":"43.5994929707284","stop_lon":"3.87564516827548"},{"stop_id":"42125","name":"Rondelet","stop_lat":"43.6030802177349","stop_lon":"3.87624899612494"},{"stop_id":"42137","name":"Pompignane","stop_lat":"43.6122792097737","stop_lon":"3.89490733504466"},{"stop_id":"42139","name":"Les Aubes","stop_lat":"43.6139711840498","stop_lon":"3.88851955268758"},{"stop_id":"42231","name":"Les Aubes","stop_lat":"43.6139548080509","stop_lon":"3.88840775122509"},{"stop_id":"42233","name":"Pompignane","stop_lat":"43.6124501254217","stop_lon":"3.89489962500101"},{"stop_id":"42245","name":"Rondelet","stop_lat":"43.6030784578395","stop_lon":"3.87637265425441"},{"stop_id":"42247","name":"Nouveau Saint-Roch","stop_lat":"43.5995475912133","stop_lon":"3.87559716042538"},{"stop_id":"43123","name":"Saint-Denis","stop_lat":"43.6056690419268","stop_lon":"3.87373320298287"},{"stop_id":"43125","name":"Observatoire","stop_lat":"43.6064472174367","stop_lon":"3.87653767936612"},{"stop_id":"43127","name":"Gare Saint-Roch","stop_lat":"43.605351081248","stop_lon":"3.87965038044627"},{"stop_id":"43133","name":"Saint-Martin","stop_lat":"43.5922730822352","stop_lon":"3.88015063500089"},{"stop_id":"43135","name":"Restanque","stop_lat":"43.5904166495416","stop_lon":"3.8848744732649"},{"stop_id":"43137","name":"Garcia Lorca","stop_lat":"43.5910407295796","stop_lon":"3.89087748719573"},{"stop_id":"43139","name":"La Rauze","stop_lat":"43.5934705270149","stop_lon":"3.8956930946039"},{"stop_id":"43141","name":"Georges Fr\u00eache - H\u00f4tel de Ville","stop_lat":"43.5993167421199","stop_lon":"3.89486304181729"},{"stop_id":"43217","name":"Georges Fr\u00eache - H\u00f4tel de Ville","stop_lat":"43.5993528646136","stop_lon":"3.89485165719292"},{"stop_id":"43219","name":"La Rauze","stop_lat":"43.5935143880322","stop_lon":"3.89576850263152"},{"stop_id":"43221","name":"Garcia Lorca","stop_lat":"43.5910673324132","stop_lon":"3.89090294678733"},{"stop_id":"43223","name":"Restanque","stop_lat":"43.5904335598282","stop_lon":"3.88494913850408"},{"stop_id":"43225","name":"Saint-Martin","stop_lat":"43.5922630375671","stop_lon":"3.88022457302336"},{"stop_id":"43231","name":"Gare Saint-Roch","stop_lat":"43.6052434235599","stop_lon":"3.87963510162042"},{"stop_id":"43233","name":"Observatoire","stop_lat":"43.6065192829458","stop_lon":"3.87652725063757"}],"routes":[{"stop_id":"43123","stop_name":"Saint-Denis","partiel":"0","stop_order":"1","direction":"Vers Place Albert 1er"},{"stop_id":"43125","stop_name":"Observatoire","partiel":"0","stop_order":"2","direction":"Vers Place Albert 1er"},{"stop_id":"43231","stop_name":"Gare Saint-Roch","partiel":"0","stop_order":"3","direction":"Vers Place Albert 1er"},{"stop_id":"42245","stop_name":"Rondelet","partiel":"0","stop_order":"4","direction":"Vers Place Albert 1er"},{"stop_id":"42247","stop_name":"Nouveau Saint-Roch","partiel":"0","stop_order":"5","direction":"Vers Place Albert 1er"},{"stop_id":"43133","stop_name":"Saint-Martin","partiel":"0","stop_order":"6","direction":"Vers Place Albert 1er"},{"stop_id":"43135","stop_name":"Restanque","partiel":"0","stop_order":"7","direction":"Vers Place Albert 1er"},{"stop_id":"43137","stop_name":"Garcia Lorca","partiel":"0","stop_order":"8","direction":"Vers Place Albert 1er"},{"stop_id":"43139","stop_name":"La Rauze","partiel":"0","stop_order":"9","direction":"Vers Place Albert 1er"},{"stop_id":"43141","stop_name":"Georges Fr\u00eache - H\u00f4tel de Ville","partiel":"0","stop_order":"10","direction":"Vers Place Albert 1er"},{"stop_id":"41211","stop_name":"Rives du Lez","partiel":"0","stop_order":"11","direction":"Vers Place Albert 1er"},{"stop_id":"41213","stop_name":"Place de l'Europe","partiel":"0","stop_order":"12","direction":"Vers Place Albert 1er"},{"stop_id":"42137","stop_name":"Pompignane","partiel":"0","stop_order":"13","direction":"Vers Place Albert 1er"},{"stop_id":"42139","stop_name":"Les Aubes","partiel":"0","stop_order":"14","direction":"Vers Place Albert 1er"},{"stop_id":"41225","stop_name":"Corum","partiel":"0","stop_order":"15","direction":"Vers Place Albert 1er"},{"stop_id":"41227","stop_name":"Louis Blanc","partiel":"0","stop_order":"16","direction":"Vers Place Albert 1er"},{"stop_id":"41229","stop_name":"Place Albert 1er","partiel":"0","stop_order":"17","direction":"Vers Place Albert 1er"},{"stop_id":"41127","stop_name":"Place Albert 1er","partiel":"0","stop_order":"1","direction":"Vers Saint-Denis"},{"stop_id":"41129","stop_name":"Louis Blanc","partiel":"0","stop_order":"2","direction":"Vers Saint-Denis"},{"stop_id":"41131","stop_name":"Corum","partiel":"0","stop_order":"3","direction":"Vers Saint-Denis"},{"stop_id":"42231","stop_name":"Les Aubes","partiel":"0","stop_order":"4","direction":"Vers Saint-Denis"},{"stop_id":"42233","stop_name":"Pompignane","partiel":"0","stop_order":"5","direction":"Vers Saint-Denis"},{"stop_id":"41143","stop_name":"Place de l'Europe","partiel":"0","stop_order":"6","direction":"Vers Saint-Denis"},{"stop_id":"41145","stop_name":"Rives du Lez","partiel":"0","stop_order":"7","direction":"Vers Saint-Denis"},{"stop_id":"43217","stop_name":"Georges Fr\u00eache - H\u00f4tel de Ville","partiel":"0","stop_order":"8","direction":"Vers Saint-Denis"},{"stop_id":"43219","stop_name":"La Rauze","partiel":"0","stop_order":"9","direction":"Vers Saint-Denis"},{"stop_id":"43221","stop_name":"Garcia Lorca","partiel":"0","stop_order":"10","direction":"Vers Saint-Denis"},{"stop_id":"43223","stop_name":"Restanque","partiel":"0","stop_order":"11","direction":"Vers Saint-Denis"},{"stop_id":"43225","stop_name":"Saint-Martin","partiel":"0","stop_order":"12","direction":"Vers Saint-Denis"},{"stop_id":"42123","stop_name":"Nouveau Saint-Roch","partiel":"0","stop_order":"13","direction":"Vers Saint-Denis"},{"stop_id":"42125","stop_name":"Rondelet","partiel":"0","stop_order":"14","direction":"Vers Saint-Denis"},{"stop_id":"43127","stop_name":"Gare Saint-Roch","partiel":"0","stop_order":"15","direction":"Vers Saint-Denis"},{"stop_id":"43233","stop_name":"Observatoire","partiel":"0","stop_order":"16","direction":"Vers Saint-Denis"},{"stop_id":"43123","stop_name":"Saint-Denis","partiel":"0","stop_order":"17","direction":"Vers Saint-Denis"}]},{"route_number":"6","color":"CC0099","picto":"L6.png","stops":[{"stop_id":"17","name":"Gare Saint-Roch","stop_lat":"43.6049706716887","stop_lon":"3.87921949262933"},{"stop_id":"20","name":"Observatoire","stop_lat":"43.6062629168428","stop_lon":"3.87685436385639"},{"stop_id":"106","name":"Peyrou","stop_lat":"43.6107658835538","stop_lon":"3.87185368107145"},{"stop_id":"107","name":"Saint-Denis","stop_lat":"43.6050373963146","stop_lon":"3.87453269224891"},{"stop_id":"1236","name":"Anatole France","stop_lat":"43.6055685075168","stop_lon":"3.8763779114993"},{"stop_id":"2125","name":"Ambroise Par\u00e9","stop_lat":"43.6380121390239","stop_lon":"3.84769396815333"},{"stop_id":"2126","name":"Route de Ganges","stop_lat":"43.6429532782356","stop_lon":"3.84534892210135"},{"stop_id":"2127","name":"Antennes","stop_lat":"43.6447440345659","stop_lon":"3.84199188635127"},{"stop_id":"2128","name":"Val d'Aurelle","stop_lat":"43.6427249884188","stop_lon":"3.83589768237642"},{"stop_id":"2129","name":"Puech Villa","stop_lat":"43.6400820065708","stop_lon":"3.82939149156508"},{"stop_id":"2133","name":"Observatoire","stop_lat":"43.6064389353025","stop_lon":"3.87648797097934"},{"stop_id":"2135","name":"Peyrou","stop_lat":"43.6109718648462","stop_lon":"3.87190870595334"},{"stop_id":"2140","name":"Saint-Guilhem","stop_lat":"43.6088095883643","stop_lon":"3.87287745165915"},{"stop_id":"2202","name":"Eurom\u00e9decine","stop_lat":"43.6388125036604","stop_lon":"3.82757584744842"},{"stop_id":"2203","name":"Puech Villa","stop_lat":"43.6397089517698","stop_lon":"3.82971595378058"},{"stop_id":"2204","name":"Val d'Aurelle","stop_lat":"43.6428168126498","stop_lon":"3.83640763454239"},{"stop_id":"2205","name":"Antennes","stop_lat":"43.6446775150869","stop_lon":"3.84225010122023"},{"stop_id":"2206","name":"Route de Ganges","stop_lat":"43.6428478543968","stop_lon":"3.84517282910918"},{"stop_id":"2221","name":"Saint-Guilhem","stop_lat":"43.6087014026398","stop_lon":"3.87289928579799"},{"stop_id":"3129","name":"Las R\u00e9b\u00e8s","stop_lat":"43.6208021348586","stop_lon":"3.84924328826401"},{"stop_id":"3130","name":"C\u00e9vennes","stop_lat":"43.622101506859","stop_lon":"3.84632017448228"},{"stop_id":"3131","name":"Sainte-Genevi\u00e8ve","stop_lat":"43.6232363179595","stop_lon":"3.84423407619641"},{"stop_id":"3135","name":"Alco","stop_lat":"43.6255832627692","stop_lon":"3.84031117591848"},{"stop_id":"3136","name":"Pierre Viala","stop_lat":"43.6174253755504","stop_lon":"3.8541404197219"},{"stop_id":"3137","name":"Louis Ravaz","stop_lat":"43.6197106026762","stop_lon":"3.85144171506991"},{"stop_id":"3138","name":"Occitanie","stop_lat":"43.6343581122312","stop_lon":"3.84863696141071"},{"stop_id":"3139","name":"Apothicaires","stop_lat":"43.6416055356031","stop_lon":"3.83493987782508"},{"stop_id":"3140","name":"La Gaillarde","stop_lat":"43.6162513784556","stop_lon":"3.857722246641"},{"stop_id":"3141","name":"Ch\u00e2teau d'\u00d4","stop_lat":"43.6313091492569","stop_lon":"3.8429372640989"},{"stop_id":"3201","name":"Alco","stop_lat":"43.6258279063947","stop_lon":"3.83952559337348"},{"stop_id":"3202","name":"Sainte-Genevi\u00e8ve","stop_lat":"43.6230080395239","stop_lon":"3.84448792059845"},{"stop_id":"3203","name":"C\u00e9vennes","stop_lat":"43.6220220100698","stop_lon":"3.84621907657979"},{"stop_id":"3204","name":"Las R\u00e9b\u00e8s","stop_lat":"43.6207307627791","stop_lon":"3.84920427516281"},{"stop_id":"3228","name":"Occitanie","stop_lat":"43.6346135344989","stop_lon":"3.84837142414812"},{"stop_id":"3229","name":"Louis Ravaz","stop_lat":"43.6196663635916","stop_lon":"3.85139104547153"},{"stop_id":"3230","name":"Pierre Viala","stop_lat":"43.6165864898749","stop_lon":"3.85498427142864"},{"stop_id":"3231","name":"La Gaillarde","stop_lat":"43.616282918047","stop_lon":"3.85867583532559"},{"stop_id":"3232","name":"Apothicaires","stop_lat":"43.6416377135151","stop_lon":"3.83521305556596"},{"stop_id":"5118","name":"Berthelot","stop_lat":"43.6018471907335","stop_lon":"3.86938737434033"},{"stop_id":"5119","name":"Lyc\u00e9e Georges Clemenceau","stop_lat":"43.6030474392888","stop_lon":"3.87159678912742"},{"stop_id":"5212","name":"Rondelet","stop_lat":"43.6040889251336","stop_lon":"3.87485354148993"},{"stop_id":"5213","name":"Lyc\u00e9e Georges Clemenceau","stop_lat":"43.6031371255808","stop_lon":"3.87161156933615"},{"stop_id":"5214","name":"Berthelot","stop_lat":"43.6021286154052","stop_lon":"3.86982788605477"},{"stop_id":"6101","name":"Pas du Loup","stop_lat":"43.6001236780564","stop_lon":"3.84812682355374"},{"stop_id":"6102","name":"Estanove","stop_lat":"43.5977309307216","stop_lon":"3.84823669591361"},{"stop_id":"6103","name":"V\u00e9ga","stop_lat":"43.5957074797539","stop_lon":"3.84958084817903"},{"stop_id":"6104","name":"Font Couverte","stop_lat":"43.5933485674699","stop_lon":"3.85176943315045"},{"stop_id":"6105","name":"Le Grand M","stop_lat":"43.5909717821731","stop_lon":"3.85458812505853"},{"stop_id":"6106","name":"Avenue de Toulouse","stop_lat":"43.5913323896995","stop_lon":"3.85771442792373"},{"stop_id":"6107","name":"Ronceray","stop_lat":"43.5937857012004","stop_lon":"3.86032764487268"},{"stop_id":"6109","name":"Guillaume Janvier","stop_lat":"43.5976454091688","stop_lon":"3.864561933285"},{"stop_id":"6126","name":"Georges Brassens","stop_lat":"43.5956976021853","stop_lon":"3.86244423762293"},{"stop_id":"6127","name":"Place du 8 Mai","stop_lat":"43.5999475517205","stop_lon":"3.86704798913779"},{"stop_id":"6212","name":"Guillaume Janvier","stop_lat":"43.5970985693637","stop_lon":"3.86381752569076"},{"stop_id":"6214","name":"Ronceray","stop_lat":"43.5939382913426","stop_lon":"3.86034408238654"},{"stop_id":"6215","name":"Avenue de Toulouse","stop_lat":"43.5918215839685","stop_lon":"3.85808612377915"},{"stop_id":"6216","name":"Le Grand M","stop_lat":"43.5906117784029","stop_lon":"3.85525879036367"},{"stop_id":"6218","name":"Font Couverte","stop_lat":"43.5935849781639","stop_lon":"3.85157780704473"},{"stop_id":"6219","name":"V\u00e9ga","stop_lat":"43.5956701515617","stop_lon":"3.84967881073631"},{"stop_id":"6220","name":"Estanove","stop_lat":"43.5979291452278","stop_lon":"3.84820483184196"},{"stop_id":"6221","name":"Pas du Loup","stop_lat":"43.6004461447968","stop_lon":"3.84885280875692"},{"stop_id":"6226","name":"Georges Brassens","stop_lat":"43.5958769762589","stop_lon":"3.86247376554408"},{"stop_id":"6227","name":"Place du 8 Mai","stop_lat":"43.599586464867","stop_lon":"3.86651878660143"},{"stop_id":"7101","name":"Saint-Priest","stop_lat":"43.6351553782076","stop_lon":"3.84368235202323"},{"stop_id":"7104","name":"Ch\u00e2teau d'\u00d4","stop_lat":"43.6319278012724","stop_lon":"3.84240900812595"},{"stop_id":"7113","name":"Coll\u00e8ge Camille Claudel","stop_lat":"43.616396600225","stop_lon":"3.86209392082106"},{"stop_id":"7114","name":"Sainte-Th\u00e9r\u00e8se","stop_lat":"43.6142855976438","stop_lon":"3.8651678990776"},{"stop_id":"7115","name":"Paladilhe","stop_lat":"43.612045606876","stop_lon":"3.86718653369226"},{"stop_id":"7137","name":"Jean Bart","stop_lat":"43.6255835516352","stop_lon":"3.83769999140521"},{"stop_id":"7215","name":"Pitot","stop_lat":"43.612090811667","stop_lon":"3.87034272852489"},{"stop_id":"7216","name":"Doria","stop_lat":"43.612493581044","stop_lon":"3.86792851848614"},{"stop_id":"7217","name":"Sainte-Th\u00e9r\u00e8se","stop_lat":"43.6141006302092","stop_lon":"3.86553413665737"},{"stop_id":"7218","name":"Coll\u00e8ge Camille Claudel","stop_lat":"43.616485416877","stop_lon":"3.86217053335742"},{"stop_id":"7228","name":"Saint-Priest","stop_lat":"43.6344646270561","stop_lon":"3.84357748056025"},{"stop_id":"16202","name":"Appel du 18 Juin","stop_lat":"43.6365468360809","stop_lon":"3.83020264138175"}],"routes":[{"stop_id":"6101","stop_name":"Pas du Loup","partiel":"0","stop_order":"1","direction":"Vers Eurom\u00e9decine"},{"stop_id":"6102","stop_name":"Estanove","partiel":"0","stop_order":"2","direction":"Vers Eurom\u00e9decine"},{"stop_id":"6103","stop_name":"V\u00e9ga","partiel":"0","stop_order":"3","direction":"Vers Eurom\u00e9decine"},{"stop_id":"6104","stop_name":"Font Couverte","partiel":"0","stop_order":"4","direction":"Vers Eurom\u00e9decine"},{"stop_id":"6105","stop_name":"Le Grand M","partiel":"0","stop_order":"5","direction":"Vers Eurom\u00e9decine"},{"stop_id":"6106","stop_name":"Avenue de Toulouse","partiel":"0","stop_order":"6","direction":"Vers Eurom\u00e9decine"},{"stop_id":"6107","stop_name":"Ronceray","partiel":"0","stop_order":"7","direction":"Vers Eurom\u00e9decine"},{"stop_id":"6126","stop_name":"Georges Brassens","partiel":"0","stop_order":"8","direction":"Vers Eurom\u00e9decine"},{"stop_id":"6109","stop_name":"Guillaume Janvier","partiel":"0","stop_order":"9","direction":"Vers Eurom\u00e9decine"},{"stop_id":"6127","stop_name":"Place du 8 Mai","partiel":"0","stop_order":"10","direction":"Vers Eurom\u00e9decine"},{"stop_id":"5118","stop_name":"Berthelot","partiel":"0","stop_order":"11","direction":"Vers Eurom\u00e9decine"},{"stop_id":"5119","stop_name":"Lyc\u00e9e Georges Clemenceau","partiel":"0","stop_order":"12","direction":"Vers Eurom\u00e9decine"},{"stop_id":"107","stop_name":"Saint-Denis","partiel":"0","stop_order":"13","direction":"Vers Eurom\u00e9decine"},{"stop_id":"1236","stop_name":"Anatole France","partiel":"0","stop_order":"14","direction":"Vers Eurom\u00e9decine"},{"stop_id":"2133","stop_name":"Observatoire","partiel":"0","stop_order":"15","direction":"Vers Eurom\u00e9decine"},{"stop_id":"2140","stop_name":"Saint-Guilhem","partiel":"0","stop_order":"16","direction":"Vers Eurom\u00e9decine"},{"stop_id":"2135","stop_name":"Peyrou","partiel":"0","stop_order":"17","direction":"Vers Eurom\u00e9decine"},{"stop_id":"7215","stop_name":"Pitot","partiel":"0","stop_order":"18","direction":"Vers Eurom\u00e9decine"},{"stop_id":"7216","stop_name":"Doria","partiel":"0","stop_order":"19","direction":"Vers Eurom\u00e9decine"},{"stop_id":"7217","stop_name":"Sainte-Th\u00e9r\u00e8se","partiel":"0","stop_order":"20","direction":"Vers Eurom\u00e9decine"},{"stop_id":"7218","stop_name":"Coll\u00e8ge Camille Claudel","partiel":"0","stop_order":"21","direction":"Vers Eurom\u00e9decine"},{"stop_id":"3140","stop_name":"La Gaillarde","partiel":"0","stop_order":"22","direction":"Vers Eurom\u00e9decine"},{"stop_id":"3136","stop_name":"Pierre Viala","partiel":"0","stop_order":"23","direction":"Vers Eurom\u00e9decine"},{"stop_id":"3137","stop_name":"Louis Ravaz","partiel":"0","stop_order":"24","direction":"Vers Eurom\u00e9decine"},{"stop_id":"3129","stop_name":"Las R\u00e9b\u00e8s","partiel":"0","stop_order":"25","direction":"Vers Eurom\u00e9decine"},{"stop_id":"3130","stop_name":"C\u00e9vennes","partiel":"0","stop_order":"26","direction":"Vers Eurom\u00e9decine"},{"stop_id":"3131","stop_name":"Sainte-Genevi\u00e8ve","partiel":"0","stop_order":"27","direction":"Vers Eurom\u00e9decine"},{"stop_id":"3135","stop_name":"Alco","partiel":"0","stop_order":"28","direction":"Vers Eurom\u00e9decine"},{"stop_id":"3141","stop_name":"Ch\u00e2teau d'\u00d4","partiel":"0","stop_order":"29","direction":"Vers Eurom\u00e9decine"},{"stop_id":"7228","stop_name":"Saint-Priest","partiel":"0","stop_order":"30","direction":"Vers Eurom\u00e9decine"},{"stop_id":"3138","stop_name":"Occitanie","partiel":"0","stop_order":"31","direction":"Vers Eurom\u00e9decine"},{"stop_id":"2125","stop_name":"Ambroise Par\u00e9","partiel":"0","stop_order":"32","direction":"Vers Eurom\u00e9decine"},{"stop_id":"2126","stop_name":"Route de Ganges","partiel":"0","stop_order":"33","direction":"Vers Eurom\u00e9decine"},{"stop_id":"2127","stop_name":"Antennes","partiel":"0","stop_order":"34","direction":"Vers Eurom\u00e9decine"},{"stop_id":"2128","stop_name":"Val d'Aurelle","partiel":"0","stop_order":"35","direction":"Vers Eurom\u00e9decine"},{"stop_id":"3139","stop_name":"Apothicaires","partiel":"0","stop_order":"36","direction":"Vers Eurom\u00e9decine"},{"stop_id":"2129","stop_name":"Puech Villa","partiel":"0","stop_order":"37","direction":"Vers Eurom\u00e9decine"},{"stop_id":"2202","stop_name":"Eurom\u00e9decine","partiel":"0","stop_order":"38","direction":"Vers Eurom\u00e9decine"},{"stop_id":"2202","stop_name":"Eurom\u00e9decine","partiel":"0","stop_order":"1","direction":"Vers Pas du Loup"},{"stop_id":"16202","stop_name":"Appel du 18 Juin","partiel":"0","stop_order":"2","direction":"Vers Pas du Loup"},{"stop_id":"2203","stop_name":"Puech Villa","partiel":"0","stop_order":"3","direction":"Vers Pas du Loup"},{"stop_id":"3232","stop_name":"Apothicaires","partiel":"0","stop_order":"4","direction":"Vers Pas du Loup"},{"stop_id":"2204","stop_name":"Val d'Aurelle","partiel":"0","stop_order":"5","direction":"Vers Pas du Loup"},{"stop_id":"2205","stop_name":"Antennes","partiel":"0","stop_order":"6","direction":"Vers Pas du Loup"},{"stop_id":"2206","stop_name":"Route de Ganges","partiel":"0","stop_order":"7","direction":"Vers Pas du Loup"},{"stop_id":"3228","stop_name":"Occitanie","partiel":"0","stop_order":"8","direction":"Vers Pas du Loup"},{"stop_id":"7101","stop_name":"Saint-Priest","partiel":"0","stop_order":"9","direction":"Vers Pas du Loup"},{"stop_id":"7104","stop_name":"Ch\u00e2teau d'\u00d4","partiel":"0","stop_order":"10","direction":"Vers Pas du Loup"},{"stop_id":"7137","stop_name":"Jean Bart","partiel":"0","stop_order":"11","direction":"Vers Pas du Loup"},{"stop_id":"3201","stop_name":"Alco","partiel":"0","stop_order":"12","direction":"Vers Pas du Loup"},{"stop_id":"3202","stop_name":"Sainte-Genevi\u00e8ve","partiel":"0","stop_order":"13","direction":"Vers Pas du Loup"},{"stop_id":"3203","stop_name":"C\u00e9vennes","partiel":"0","stop_order":"14","direction":"Vers Pas du Loup"},{"stop_id":"3204","stop_name":"Las R\u00e9b\u00e8s","partiel":"0","stop_order":"15","direction":"Vers Pas du Loup"},{"stop_id":"3229","stop_name":"Louis Ravaz","partiel":"0","stop_order":"16","direction":"Vers Pas du Loup"},{"stop_id":"3230","stop_name":"Pierre Viala","partiel":"0","stop_order":"17","direction":"Vers Pas du Loup"},{"stop_id":"3231","stop_name":"La Gaillarde","partiel":"0","stop_order":"18","direction":"Vers Pas du Loup"},{"stop_id":"7113","stop_name":"Coll\u00e8ge Camille Claudel","partiel":"0","stop_order":"19","direction":"Vers Pas du Loup"},{"stop_id":"7114","stop_name":"Sainte-Th\u00e9r\u00e8se","partiel":"0","stop_order":"20","direction":"Vers Pas du Loup"},{"stop_id":"7115","stop_name":"Paladilhe","partiel":"0","stop_order":"21","direction":"Vers Pas du Loup"},{"stop_id":"106","stop_name":"Peyrou","partiel":"0","stop_order":"22","direction":"Vers Pas du Loup"},{"stop_id":"2221","stop_name":"Saint-Guilhem","partiel":"0","stop_order":"23","direction":"Vers Pas du Loup"},{"stop_id":"20","stop_name":"Observatoire","partiel":"0","stop_order":"24","direction":"Vers Pas du Loup"},{"stop_id":"17","stop_name":"Gare Saint-Roch","partiel":"0","stop_order":"25","direction":"Vers Pas du Loup"},{"stop_id":"5212","stop_name":"Rondelet","partiel":"0","stop_order":"26","direction":"Vers Pas du Loup"},{"stop_id":"5213","stop_name":"Lyc\u00e9e Georges Clemenceau","partiel":"0","stop_order":"27","direction":"Vers Pas du Loup"},{"stop_id":"5214","stop_name":"Berthelot","partiel":"0","stop_order":"28","direction":"Vers Pas du Loup"},{"stop_id":"6227","stop_name":"Place du 8 Mai","partiel":"0","stop_order":"29","direction":"Vers Pas du Loup"},{"stop_id":"6212","stop_name":"Guillaume Janvier","partiel":"0","stop_order":"30","direction":"Vers Pas du Loup"},{"stop_id":"6226","stop_name":"Georges Brassens","partiel":"0","stop_order":"31","direction":"Vers Pas du Loup"},{"stop_id":"6214","stop_name":"Ronceray","partiel":"0","stop_order":"32","direction":"Vers Pas du Loup"},{"stop_id":"6215","stop_name":"Avenue de Toulouse","partiel":"0","stop_order":"33","direction":"Vers Pas du Loup"},{"stop_id":"6216","stop_name":"Le Grand M","partiel":"0","stop_order":"34","direction":"Vers Pas du Loup"},{"stop_id":"6218","stop_name":"Font Couverte","partiel":"0","stop_order":"35","direction":"Vers Pas du Loup"},{"stop_id":"6219","stop_name":"V\u00e9ga","partiel":"0","stop_order":"36","direction":"Vers Pas du Loup"},{"stop_id":"6220","stop_name":"Estanove","partiel":"0","stop_order":"37","direction":"Vers Pas du Loup"},{"stop_id":"6221","stop_name":"Pas du Loup","partiel":"0","stop_order":"38","direction":"Vers Pas du Loup"}]},{"route_number":"7","color":"B3A2C7","picto":"L7.png","stops":[{"stop_id":"17","name":"Gare Saint-Roch","stop_lat":"43.6049706716887","stop_lon":"3.87921949262933"},{"stop_id":"20","name":"Observatoire","stop_lat":"43.6062629168428","stop_lon":"3.87685436385639"},{"stop_id":"106","name":"Peyrou","stop_lat":"43.6107658835538","stop_lon":"3.87185368107145"},{"stop_id":"107","name":"Saint-Denis","stop_lat":"43.6050373963146","stop_lon":"3.87453269224891"},{"stop_id":"1236","name":"Anatole France","stop_lat":"43.6055685075168","stop_lon":"3.8763779114993"},{"stop_id":"2133","name":"Observatoire","stop_lat":"43.6064389353025","stop_lon":"3.87648797097934"},{"stop_id":"2135","name":"Peyrou","stop_lat":"43.6109718648462","stop_lon":"3.87190870595334"},{"stop_id":"2140","name":"Saint-Guilhem","stop_lat":"43.6088095883643","stop_lon":"3.87287745165915"},{"stop_id":"2221","name":"Saint-Guilhem","stop_lat":"43.6087014026398","stop_lon":"3.87289928579799"},{"stop_id":"3118","name":"Saint-Roch","stop_lat":"43.6152010586818","stop_lon":"3.86972097175336"},{"stop_id":"3119","name":"La Pile","stop_lat":"43.6173183294404","stop_lon":"3.86811973689509"},{"stop_id":"3120","name":"Maison des Sports","stop_lat":"43.6184281957958","stop_lon":"3.8646476966565"},{"stop_id":"3121","name":"Pous de la Sers","stop_lat":"43.6191236326195","stop_lon":"3.86186977958743"},{"stop_id":"3141","name":"Ch\u00e2teau d'\u00d4","stop_lat":"43.6313091492569","stop_lon":"3.8429372640989"},{"stop_id":"3209","name":"Pous de la Sers","stop_lat":"43.619268188103","stop_lon":"3.86118069486939"},{"stop_id":"3210","name":"Maison des Sports","stop_lat":"43.6183337125532","stop_lon":"3.86433582336958"},{"stop_id":"3211","name":"La Pile","stop_lat":"43.6171433298036","stop_lon":"3.8677809580574"},{"stop_id":"3212","name":"Saint-Roch","stop_lat":"43.6152299449984","stop_lon":"3.86958564222392"},{"stop_id":"3213","name":"Saint-Jaumes","stop_lat":"43.6138232284326","stop_lon":"3.87052534620828"},{"stop_id":"5118","name":"Berthelot","stop_lat":"43.6018471907335","stop_lon":"3.86938737434033"},{"stop_id":"5119","name":"Lyc\u00e9e Georges Clemenceau","stop_lat":"43.6030474392888","stop_lon":"3.87159678912742"},{"stop_id":"5212","name":"Rondelet","stop_lat":"43.6040889251336","stop_lon":"3.87485354148993"},{"stop_id":"5213","name":"Lyc\u00e9e Georges Clemenceau","stop_lat":"43.6031371255808","stop_lon":"3.87161156933615"},{"stop_id":"5214","name":"Berthelot","stop_lat":"43.6021286154052","stop_lon":"3.86982788605477"},{"stop_id":"7106","name":"Pl\u00e9iade","stop_lat":"43.6284835496651","stop_lon":"3.84572158120133"},{"stop_id":"7107","name":"Font Trouv\u00e9","stop_lat":"43.6269367131124","stop_lon":"3.84769793461971"},{"stop_id":"7108","name":"Gardioles","stop_lat":"43.6250682154211","stop_lon":"3.85081655732953"},{"stop_id":"7109","name":"Cervant\u00e8s","stop_lat":"43.6221500652771","stop_lon":"3.85505793217425"},{"stop_id":"7110","name":"La Source","stop_lat":"43.6210466975256","stop_lon":"3.85681050975855"},{"stop_id":"7111","name":"Cit\u00e9 Roger","stop_lat":"43.6203876328334","stop_lon":"3.85829025192189"},{"stop_id":"7116","name":"Myrtes","stop_lat":"43.6010747775961","stop_lon":"3.86616279734264"},{"stop_id":"7117","name":"Lepic","stop_lat":"43.6014070452941","stop_lon":"3.86300493232419"},{"stop_id":"7118","name":"Gouara","stop_lat":"43.6030643418636","stop_lon":"3.86277705922043"},{"stop_id":"7119","name":"Mas de Merle","stop_lat":"43.6045080804015","stop_lon":"3.85728587237362"},{"stop_id":"7120","name":"\u00c9toile","stop_lat":"43.6052264621904","stop_lon":"3.85478131856996"},{"stop_id":"7121","name":"Figairasse","stop_lat":"43.6071932322163","stop_lon":"3.85042937597188"},{"stop_id":"7122","name":"Fran\u00e7ois Dezeuze","stop_lat":"43.6086800917722","stop_lon":"3.84566856385133"},{"stop_id":"7124","name":"Lyc\u00e9e Jules Ferry","stop_lat":"43.6087094176474","stop_lon":"3.84098047379125"},{"stop_id":"7125","name":"Martelli\u00e8re","stop_lat":"43.6066899775183","stop_lon":"3.83751283797397"},{"stop_id":"7126","name":"Monsieur Teste","stop_lat":"43.6073852103855","stop_lon":"3.83599705383341"},{"stop_id":"7127","name":"Gustave Eiffel","stop_lat":"43.6092551368515","stop_lon":"3.83274287185258"},{"stop_id":"7128","name":"Croix des Rosiers","stop_lat":"43.6106736505957","stop_lon":"3.83092421343876"},{"stop_id":"7129","name":"Gr\u00e8zes","stop_lat":"43.60964016409","stop_lon":"3.82764338704021"},{"stop_id":"7132","name":"H\u00f4tel du D\u00e9partement","stop_lat":"43.6220697534915","stop_lon":"3.83502136043073"},{"stop_id":"7137","name":"Jean Bart","stop_lat":"43.6255835516352","stop_lon":"3.83769999140521"},{"stop_id":"7161","name":"Sophie Germain","stop_lat":"43.6050300445204","stop_lon":"3.83534144174039"},{"stop_id":"7162","name":"Ormeaux","stop_lat":"43.6020495221822","stop_lon":"3.83375409130462"},{"stop_id":"7164","name":"Les Bouisses","stop_lat":"43.5993251472128","stop_lon":"3.83509284038327"},{"stop_id":"7201","name":"La Martelle","stop_lat":"43.6066435507389","stop_lon":"3.82656311214596"},{"stop_id":"7202","name":"Gr\u00e8zes","stop_lat":"43.6097283229193","stop_lon":"3.82776940652927"},{"stop_id":"7203","name":"Croix des Rosiers","stop_lat":"43.6108871668368","stop_lon":"3.83043491439047"},{"stop_id":"7204","name":"Gustave Eiffel","stop_lat":"43.6087780994685","stop_lon":"3.83343556300822"},{"stop_id":"7205","name":"Monsieur Teste","stop_lat":"43.6069758571286","stop_lon":"3.83634507709663"},{"stop_id":"7206","name":"Martelli\u00e8re","stop_lat":"43.6071737551704","stop_lon":"3.83828019885106"},{"stop_id":"7207","name":"Lyc\u00e9e Jules Ferry","stop_lat":"43.6086470295296","stop_lon":"3.84094171591322"},{"stop_id":"7209","name":"Fran\u00e7ois Dezeuze","stop_lat":"43.608595951492","stop_lon":"3.84654472896969"},{"stop_id":"7210","name":"Figairasse","stop_lat":"43.6070477218546","stop_lon":"3.85054923351732"},{"stop_id":"7211","name":"\u00c9toile","stop_lat":"43.6051452390963","stop_lon":"3.8548039020248"},{"stop_id":"7212","name":"Mas de Merle","stop_lat":"43.6043506212434","stop_lon":"3.85761569208972"},{"stop_id":"7213","name":"Gouara","stop_lat":"43.6030384299099","stop_lon":"3.86270214400029"},{"stop_id":"7214","name":"Croix du Capitaine","stop_lat":"43.6020847950035","stop_lon":"3.86657331709502"},{"stop_id":"7215","name":"Pitot","stop_lat":"43.612090811667","stop_lon":"3.87034272852489"},{"stop_id":"7216","name":"Doria","stop_lat":"43.612493581044","stop_lon":"3.86792851848614"},{"stop_id":"7219","name":"Cit\u00e9 Roger","stop_lat":"43.6203929662818","stop_lon":"3.85855025330807"},{"stop_id":"7221","name":"La Source","stop_lat":"43.6216600735185","stop_lon":"3.85602249207943"},{"stop_id":"7222","name":"Cervant\u00e8s","stop_lat":"43.62290426136","stop_lon":"3.85448399409253"},{"stop_id":"7223","name":"Gardioles","stop_lat":"43.6247101114775","stop_lon":"3.85199507880577"},{"stop_id":"7224","name":"Muriers","stop_lat":"43.6262060519225","stop_lon":"3.84916365966573"},{"stop_id":"7225","name":"Font Trouv\u00e9","stop_lat":"43.627033836132","stop_lon":"3.84782426104482"},{"stop_id":"7226","name":"Pl\u00e9iade","stop_lat":"43.6284453614805","stop_lon":"3.84588145952179"},{"stop_id":"7231","name":"Ch\u00e2teau d'\u00d4","stop_lat":"43.6312910042157","stop_lon":"3.84294916203496"},{"stop_id":"7237","name":"Lyc\u00e9e Jean Monnet","stop_lat":"43.6239466290571","stop_lon":"3.83451372964292"},{"stop_id":"7262","name":"Ormeaux","stop_lat":"43.6030089090294","stop_lon":"3.83328441537796"},{"stop_id":"7263","name":"Sophie Germain","stop_lat":"43.6050729200871","stop_lon":"3.8354910168735"},{"stop_id":"9226","name":"Lyc\u00e9e Jean Monnet","stop_lat":"43.623962547191","stop_lon":"3.83466264657354"}],"routes":[{"stop_id":"7132","stop_name":"H\u00f4tel du D\u00e9partement","partiel":"0","stop_order":"1","direction":"Vers La Martelle "},{"stop_id":"9226","stop_name":"Lyc\u00e9e Jean Monnet","partiel":"0","stop_order":"2","direction":"Vers La Martelle "},{"stop_id":"7137","stop_name":"Jean Bart","partiel":"0","stop_order":"3","direction":"Vers La Martelle "},{"stop_id":"3141","stop_name":"Ch\u00e2teau d'\u00d4","partiel":"0","stop_order":"4","direction":"Vers La Martelle "},{"stop_id":"7106","stop_name":"Pl\u00e9iade","partiel":"0","stop_order":"5","direction":"Vers La Martelle "},{"stop_id":"7107","stop_name":"Font Trouv\u00e9","partiel":"0","stop_order":"6","direction":"Vers La Martelle "},{"stop_id":"7108","stop_name":"Gardioles","partiel":"0","stop_order":"7","direction":"Vers La Martelle "},{"stop_id":"7109","stop_name":"Cervant\u00e8s","partiel":"0","stop_order":"8","direction":"Vers La Martelle "},{"stop_id":"7110","stop_name":"La Source","partiel":"0","stop_order":"9","direction":"Vers La Martelle "},{"stop_id":"7111","stop_name":"Cit\u00e9 Roger","partiel":"0","stop_order":"10","direction":"Vers La Martelle "},{"stop_id":"3209","stop_name":"Pous de la Sers","partiel":"0","stop_order":"11","direction":"Vers La Martelle "},{"stop_id":"3210","stop_name":"Maison des Sports","partiel":"0","stop_order":"12","direction":"Vers La Martelle "},{"stop_id":"3211","stop_name":"La Pile","partiel":"0","stop_order":"13","direction":"Vers La Martelle "},{"stop_id":"3212","stop_name":"Saint-Roch","partiel":"0","stop_order":"14","direction":"Vers La Martelle "},{"stop_id":"3213","stop_name":"Saint-Jaumes","partiel":"0","stop_order":"15","direction":"Vers La Martelle "},{"stop_id":"106","stop_name":"Peyrou","partiel":"0","stop_order":"16","direction":"Vers La Martelle "},{"stop_id":"2221","stop_name":"Saint-Guilhem","partiel":"0","stop_order":"17","direction":"Vers La Martelle "},{"stop_id":"20","stop_name":"Observatoire","partiel":"0","stop_order":"18","direction":"Vers La Martelle "},{"stop_id":"17","stop_name":"Gare Saint-Roch","partiel":"0","stop_order":"19","direction":"Vers La Martelle "},{"stop_id":"5212","stop_name":"Rondelet","partiel":"0","stop_order":"20","direction":"Vers La Martelle "},{"stop_id":"5213","stop_name":"Lyc\u00e9e Georges Clemenceau","partiel":"0","stop_order":"21","direction":"Vers La Martelle "},{"stop_id":"5214","stop_name":"Berthelot","partiel":"0","stop_order":"22","direction":"Vers La Martelle "},{"stop_id":"7116","stop_name":"Myrtes","partiel":"0","stop_order":"23","direction":"Vers La Martelle "},{"stop_id":"7117","stop_name":"Lepic","partiel":"0","stop_order":"24","direction":"Vers La Martelle "},{"stop_id":"7118","stop_name":"Gouara","partiel":"0","stop_order":"25","direction":"Vers La Martelle "},{"stop_id":"7119","stop_name":"Mas de Merle","partiel":"0","stop_order":"26","direction":"Vers La Martelle "},{"stop_id":"7120","stop_name":"\u00c9toile","partiel":"0","stop_order":"27","direction":"Vers La Martelle "},{"stop_id":"7121","stop_name":"Figairasse","partiel":"0","stop_order":"28","direction":"Vers La Martelle "},{"stop_id":"7122","stop_name":"Fran\u00e7ois Dezeuze","partiel":"0","stop_order":"29","direction":"Vers La Martelle "},{"stop_id":"7124","stop_name":"Lyc\u00e9e Jules Ferry","partiel":"0","stop_order":"30","direction":"Vers La Martelle "},{"stop_id":"7125","stop_name":"Martelli\u00e8re","partiel":"0","stop_order":"31","direction":"Vers La Martelle "},{"stop_id":"7126","stop_name":"Monsieur Teste","partiel":"0","stop_order":"32","direction":"Vers La Martelle "},{"stop_id":"7127","stop_name":"Gustave Eiffel","partiel":"0","stop_order":"33","direction":"Vers La Martelle "},{"stop_id":"7128","stop_name":"Croix des Rosiers","partiel":"0","stop_order":"34","direction":"Vers La Martelle "},{"stop_id":"7129","stop_name":"Gr\u00e8zes","partiel":"0","stop_order":"35","direction":"Vers La Martelle "},{"stop_id":"7201","stop_name":"La Martelle","partiel":"0","stop_order":"36","direction":"Vers La Martelle "},{"stop_id":"7132","stop_name":"H\u00f4tel du D\u00e9partement","partiel":"0","stop_order":"1","direction":"Vers  Les Bouisses"},{"stop_id":"9226","stop_name":"Lyc\u00e9e Jean Monnet","partiel":"0","stop_order":"2","direction":"Vers  Les Bouisses"},{"stop_id":"7137","stop_name":"Jean Bart","partiel":"0","stop_order":"3","direction":"Vers  Les Bouisses"},{"stop_id":"3141","stop_name":"Ch\u00e2teau d'\u00d4","partiel":"0","stop_order":"4","direction":"Vers  Les Bouisses"},{"stop_id":"7106","stop_name":"Pl\u00e9iade","partiel":"0","stop_order":"5","direction":"Vers  Les Bouisses"},{"stop_id":"7107","stop_name":"Font Trouv\u00e9","partiel":"0","stop_order":"6","direction":"Vers  Les Bouisses"},{"stop_id":"7108","stop_name":"Gardioles","partiel":"0","stop_order":"7","direction":"Vers  Les Bouisses"},{"stop_id":"7109","stop_name":"Cervant\u00e8s","partiel":"0","stop_order":"8","direction":"Vers  Les Bouisses"},{"stop_id":"7110","stop_name":"La Source","partiel":"0","stop_order":"9","direction":"Vers  Les Bouisses"},{"stop_id":"7111","stop_name":"Cit\u00e9 Roger","partiel":"0","stop_order":"10","direction":"Vers  Les Bouisses"},{"stop_id":"3209","stop_name":"Pous de la Sers","partiel":"0","stop_order":"11","direction":"Vers  Les Bouisses"},{"stop_id":"3210","stop_name":"Maison des Sports","partiel":"0","stop_order":"12","direction":"Vers  Les Bouisses"},{"stop_id":"3211","stop_name":"La Pile","partiel":"0","stop_order":"13","direction":"Vers  Les Bouisses"},{"stop_id":"3212","stop_name":"Saint-Roch","partiel":"0","stop_order":"14","direction":"Vers  Les Bouisses"},{"stop_id":"3213","stop_name":"Saint-Jaumes","partiel":"0","stop_order":"15","direction":"Vers  Les Bouisses"},{"stop_id":"106","stop_name":"Peyrou","partiel":"0","stop_order":"16","direction":"Vers  Les Bouisses"},{"stop_id":"2221","stop_name":"Saint-Guilhem","partiel":"0","stop_order":"17","direction":"Vers  Les Bouisses"},{"stop_id":"20","stop_name":"Observatoire","partiel":"0","stop_order":"18","direction":"Vers  Les Bouisses"},{"stop_id":"17","stop_name":"Gare Saint-Roch","partiel":"0","stop_order":"19","direction":"Vers  Les Bouisses"},{"stop_id":"5212","stop_name":"Rondelet","partiel":"0","stop_order":"20","direction":"Vers  Les Bouisses"},{"stop_id":"5213","stop_name":"Lyc\u00e9e Georges Clemenceau","partiel":"0","stop_order":"21","direction":"Vers  Les Bouisses"},{"stop_id":"5214","stop_name":"Berthelot","partiel":"0","stop_order":"22","direction":"Vers  Les Bouisses"},{"stop_id":"7116","stop_name":"Myrtes","partiel":"0","stop_order":"23","direction":"Vers  Les Bouisses"},{"stop_id":"7117","stop_name":"Lepic","partiel":"0","stop_order":"24","direction":"Vers  Les Bouisses"},{"stop_id":"7118","stop_name":"Gouara","partiel":"0","stop_order":"25","direction":"Vers  Les Bouisses"},{"stop_id":"7119","stop_name":"Mas de Merle","partiel":"0","stop_order":"26","direction":"Vers  Les Bouisses"},{"stop_id":"7120","stop_name":"\u00c9toile","partiel":"0","stop_order":"27","direction":"Vers  Les Bouisses"},{"stop_id":"7121","stop_name":"Figairasse","partiel":"0","stop_order":"28","direction":"Vers  Les Bouisses"},{"stop_id":"7122","stop_name":"Fran\u00e7ois Dezeuze","partiel":"0","stop_order":"29","direction":"Vers  Les Bouisses"},{"stop_id":"7124","stop_name":"Lyc\u00e9e Jules Ferry","partiel":"0","stop_order":"30","direction":"Vers  Les Bouisses"},{"stop_id":"7125","stop_name":"Martelli\u00e8re","partiel":"0","stop_order":"31","direction":"Vers  Les Bouisses"},{"stop_id":"7161","stop_name":"Sophie Germain","partiel":"0","stop_order":"32","direction":"Vers  Les Bouisses"},{"stop_id":"7162","stop_name":"Ormeaux","partiel":"0","stop_order":"33","direction":"Vers  Les Bouisses"},{"stop_id":"7164","stop_name":"Les Bouisses","partiel":"0","stop_order":"34","direction":"Vers  Les Bouisses"},{"stop_id":"7201","stop_name":"La Martelle","partiel":"0","stop_order":"1","direction":"De La Martelle vers H. D\u00e9partement"},{"stop_id":"7202","stop_name":"Gr\u00e8zes","partiel":"0","stop_order":"2","direction":"De La Martelle vers H. D\u00e9partement"},{"stop_id":"7203","stop_name":"Croix des Rosiers","partiel":"0","stop_order":"3","direction":"De La Martelle vers H. D\u00e9partement"},{"stop_id":"7204","stop_name":"Gustave Eiffel","partiel":"0","stop_order":"4","direction":"De La Martelle vers H. D\u00e9partement"},{"stop_id":"7205","stop_name":"Monsieur Teste","partiel":"0","stop_order":"5","direction":"De La Martelle vers H. D\u00e9partement"},{"stop_id":"7206","stop_name":"Martelli\u00e8re","partiel":"0","stop_order":"6","direction":"De La Martelle vers H. D\u00e9partement"},{"stop_id":"7207","stop_name":"Lyc\u00e9e Jules Ferry","partiel":"0","stop_order":"7","direction":"De La Martelle vers H. D\u00e9partement"},{"stop_id":"7209","stop_name":"Fran\u00e7ois Dezeuze","partiel":"0","stop_order":"8","direction":"De La Martelle vers H. D\u00e9partement"},{"stop_id":"7210","stop_name":"Figairasse","partiel":"0","stop_order":"9","direction":"De La Martelle vers H. D\u00e9partement"},{"stop_id":"7211","stop_name":"\u00c9toile","partiel":"0","stop_order":"10","direction":"De La Martelle vers H. D\u00e9partement"},{"stop_id":"7212","stop_name":"Mas de Merle","partiel":"0","stop_order":"11","direction":"De La Martelle vers H. D\u00e9partement"},{"stop_id":"7213","stop_name":"Gouara","partiel":"0","stop_order":"12","direction":"De La Martelle vers H. D\u00e9partement"},{"stop_id":"7214","stop_name":"Croix du Capitaine","partiel":"0","stop_order":"13","direction":"De La Martelle vers H. D\u00e9partement"},{"stop_id":"5118","stop_name":"Berthelot","partiel":"0","stop_order":"14","direction":"De La Martelle vers H. D\u00e9partement"},{"stop_id":"5119","stop_name":"Lyc\u00e9e Georges Clemenceau","partiel":"0","stop_order":"15","direction":"De La Martelle vers H. D\u00e9partement"},{"stop_id":"107","stop_name":"Saint-Denis","partiel":"0","stop_order":"16","direction":"De La Martelle vers H. D\u00e9partement"},{"stop_id":"1236","stop_name":"Anatole France","partiel":"0","stop_order":"17","direction":"De La Martelle vers H. D\u00e9partement"},{"stop_id":"2133","stop_name":"Observatoire","partiel":"0","stop_order":"18","direction":"De La Martelle vers H. D\u00e9partement"},{"stop_id":"2140","stop_name":"Saint-Guilhem","partiel":"0","stop_order":"19","direction":"De La Martelle vers H. D\u00e9partement"},{"stop_id":"2135","stop_name":"Peyrou","partiel":"0","stop_order":"20","direction":"De La Martelle vers H. D\u00e9partement"},{"stop_id":"7215","stop_name":"Pitot","partiel":"0","stop_order":"21","direction":"De La Martelle vers H. D\u00e9partement"},{"stop_id":"7216","stop_name":"Doria","partiel":"0","stop_order":"22","direction":"De La Martelle vers H. D\u00e9partement"},{"stop_id":"3118","stop_name":"Saint-Roch","partiel":"0","stop_order":"23","direction":"De La Martelle vers H. D\u00e9partement"},{"stop_id":"3119","stop_name":"La Pile","partiel":"0","stop_order":"24","direction":"De La Martelle vers H. D\u00e9partement"},{"stop_id":"3120","stop_name":"Maison des Sports","partiel":"0","stop_order":"25","direction":"De La Martelle vers H. D\u00e9partement"},{"stop_id":"3121","stop_name":"Pous de la Sers","partiel":"0","stop_order":"26","direction":"De La Martelle vers H. D\u00e9partement"},{"stop_id":"7219","stop_name":"Cit\u00e9 Roger","partiel":"0","stop_order":"27","direction":"De La Martelle vers H. D\u00e9partement"},{"stop_id":"7221","stop_name":"La Source","partiel":"0","stop_order":"28","direction":"De La Martelle vers H. D\u00e9partement"},{"stop_id":"7222","stop_name":"Cervant\u00e8s","partiel":"0","stop_order":"29","direction":"De La Martelle vers H. D\u00e9partement"},{"stop_id":"7223","stop_name":"Gardioles","partiel":"0","stop_order":"30","direction":"De La Martelle vers H. D\u00e9partement"},{"stop_id":"7224","stop_name":"Muriers","partiel":"0","stop_order":"31","direction":"De La Martelle vers H. D\u00e9partement"},{"stop_id":"7225","stop_name":"Font Trouv\u00e9","partiel":"0","stop_order":"32","direction":"De La Martelle vers H. D\u00e9partement"},{"stop_id":"7226","stop_name":"Pl\u00e9iade","partiel":"0","stop_order":"33","direction":"De La Martelle vers H. D\u00e9partement"},{"stop_id":"7231","stop_name":"Ch\u00e2teau d'\u00d4","partiel":"0","stop_order":"34","direction":"De La Martelle vers H. D\u00e9partement"},{"stop_id":"7237","stop_name":"Lyc\u00e9e Jean Monnet","partiel":"0","stop_order":"35","direction":"De La Martelle vers H. D\u00e9partement"},{"stop_id":"7132","stop_name":"H\u00f4tel du D\u00e9partement","partiel":"0","stop_order":"36","direction":"De La Martelle vers H. D\u00e9partement"},{"stop_id":"7164","stop_name":"Les Bouisses","partiel":"0","stop_order":"1","direction":"De Les Bouisses vers H. D\u00e9partement"},{"stop_id":"7262","stop_name":"Ormeaux","partiel":"0","stop_order":"2","direction":"De Les Bouisses vers H. D\u00e9partement"},{"stop_id":"7263","stop_name":"Sophie Germain","partiel":"0","stop_order":"3","direction":"De Les Bouisses vers H. D\u00e9partement"},{"stop_id":"7206","stop_name":"Martelli\u00e8re","partiel":"0","stop_order":"4","direction":"De Les Bouisses vers H. D\u00e9partement"},{"stop_id":"7207","stop_name":"Lyc\u00e9e Jules Ferry","partiel":"0","stop_order":"5","direction":"De Les Bouisses vers H. D\u00e9partement"},{"stop_id":"7209","stop_name":"Fran\u00e7ois Dezeuze","partiel":"0","stop_order":"6","direction":"De Les Bouisses vers H. D\u00e9partement"},{"stop_id":"7210","stop_name":"Figairasse","partiel":"0","stop_order":"7","direction":"De Les Bouisses vers H. D\u00e9partement"},{"stop_id":"7211","stop_name":"\u00c9toile","partiel":"0","stop_order":"8","direction":"De Les Bouisses vers H. D\u00e9partement"},{"stop_id":"7212","stop_name":"Mas de Merle","partiel":"0","stop_order":"9","direction":"De Les Bouisses vers H. D\u00e9partement"},{"stop_id":"7213","stop_name":"Gouara","partiel":"0","stop_order":"10","direction":"De Les Bouisses vers H. D\u00e9partement"},{"stop_id":"7214","stop_name":"Croix du Capitaine","partiel":"0","stop_order":"11","direction":"De Les Bouisses vers H. D\u00e9partement"},{"stop_id":"5118","stop_name":"Berthelot","partiel":"0","stop_order":"12","direction":"De Les Bouisses vers H. D\u00e9partement"},{"stop_id":"5119","stop_name":"Lyc\u00e9e Georges Clemenceau","partiel":"0","stop_order":"13","direction":"De Les Bouisses vers H. D\u00e9partement"},{"stop_id":"107","stop_name":"Saint-Denis","partiel":"0","stop_order":"14","direction":"De Les Bouisses vers H. D\u00e9partement"},{"stop_id":"1236","stop_name":"Anatole France","partiel":"0","stop_order":"15","direction":"De Les Bouisses vers H. D\u00e9partement"},{"stop_id":"2133","stop_name":"Observatoire","partiel":"0","stop_order":"16","direction":"De Les Bouisses vers H. D\u00e9partement"},{"stop_id":"2140","stop_name":"Saint-Guilhem","partiel":"0","stop_order":"17","direction":"De Les Bouisses vers H. D\u00e9partement"},{"stop_id":"2135","stop_name":"Peyrou","partiel":"0","stop_order":"18","direction":"De Les Bouisses vers H. D\u00e9partement"},{"stop_id":"7215","stop_name":"Pitot","partiel":"0","stop_order":"19","direction":"De Les Bouisses vers H. D\u00e9partement"},{"stop_id":"7216","stop_name":"Doria","partiel":"0","stop_order":"20","direction":"De Les Bouisses vers H. D\u00e9partement"},{"stop_id":"3118","stop_name":"Saint-Roch","partiel":"0","stop_order":"21","direction":"De Les Bouisses vers H. D\u00e9partement"},{"stop_id":"3119","stop_name":"La Pile","partiel":"0","stop_order":"22","direction":"De Les Bouisses vers H. D\u00e9partement"},{"stop_id":"3120","stop_name":"Maison des Sports","partiel":"0","stop_order":"23","direction":"De Les Bouisses vers H. D\u00e9partement"},{"stop_id":"3121","stop_name":"Pous de la Sers","partiel":"0","stop_order":"24","direction":"De Les Bouisses vers H. D\u00e9partement"},{"stop_id":"7219","stop_name":"Cit\u00e9 Roger","partiel":"0","stop_order":"25","direction":"De Les Bouisses vers H. D\u00e9partement"},{"stop_id":"7221","stop_name":"La Source","partiel":"0","stop_order":"26","direction":"De Les Bouisses vers H. D\u00e9partement"},{"stop_id":"7222","stop_name":"Cervant\u00e8s","partiel":"0","stop_order":"27","direction":"De Les Bouisses vers H. D\u00e9partement"},{"stop_id":"7223","stop_name":"Gardioles","partiel":"0","stop_order":"28","direction":"De Les Bouisses vers H. D\u00e9partement"},{"stop_id":"7224","stop_name":"Muriers","partiel":"0","stop_order":"29","direction":"De Les Bouisses vers H. D\u00e9partement"},{"stop_id":"7225","stop_name":"Font Trouv\u00e9","partiel":"0","stop_order":"30","direction":"De Les Bouisses vers H. D\u00e9partement"},{"stop_id":"7226","stop_name":"Pl\u00e9iade","partiel":"0","stop_order":"31","direction":"De Les Bouisses vers H. D\u00e9partement"},{"stop_id":"7231","stop_name":"Ch\u00e2teau d'\u00d4","partiel":"0","stop_order":"32","direction":"De Les Bouisses vers H. D\u00e9partement"},{"stop_id":"7237","stop_name":"Lyc\u00e9e Jean Monnet","partiel":"0","stop_order":"33","direction":"De Les Bouisses vers H. D\u00e9partement"},{"stop_id":"7132","stop_name":"H\u00f4tel du D\u00e9partement","partiel":"0","stop_order":"34","direction":"De Les Bouisses vers H. D\u00e9partement"}]},{"route_number":"8","color":"FFFF00","picto":"L8.png","stops":[{"stop_id":"21","name":"Gare Saint-Roch","stop_lat":"43.604132144047","stop_lon":"3.87813296304905"},{"stop_id":"3112","name":"Cit\u00e9 Mion","stop_lat":"43.6013411253374","stop_lon":"3.88472519310408"},{"stop_id":"3115","name":"Place de Strasbourg","stop_lat":"43.6031697265646","stop_lon":"3.88006154730388"},{"stop_id":"3219","name":"Lucullus","stop_lat":"43.5946977939189","stop_lon":"3.88849083951096"},{"stop_id":"3220","name":"Cit\u00e9 de l'Arme","stop_lat":"43.593626969366","stop_lon":"3.88919150114047"},{"stop_id":"8103","name":"Jean Mirailhet","stop_lat":"43.5961288185895","stop_lon":"3.89212911298444"},{"stop_id":"8104","name":"Coll\u00e8ge des Aiguerelles","stop_lat":"43.5982761169694","stop_lon":"3.89096298648582"},{"stop_id":"8105","name":"Chamb\u00e9ry","stop_lat":"43.5992820586981","stop_lon":"3.88914725652822"},{"stop_id":"8106","name":"Soleiado","stop_lat":"43.600668274279","stop_lon":"3.88651299038078"},{"stop_id":"8131","name":"Place Carnot","stop_lat":"43.6033043854567","stop_lon":"3.88385059559379"},{"stop_id":"8132","name":"Henri Ren\u00e9","stop_lat":"43.6031682633384","stop_lon":"3.88205317273247"},{"stop_id":"8218","name":"H\u00e9lios","stop_lat":"43.6010230298201","stop_lon":"3.88559485359729"},{"stop_id":"8219","name":"Soleiado","stop_lat":"43.6003285232027","stop_lon":"3.8870109434519"},{"stop_id":"8220","name":"Chamb\u00e9ry","stop_lat":"43.5988957676535","stop_lon":"3.88975524434921"},{"stop_id":"8221","name":"Coll\u00e8ge des Aiguerelles","stop_lat":"43.5975759338822","stop_lon":"3.8921437714252"},{"stop_id":"10125","name":"Jean Mirailhet","stop_lat":"43.5968243984061","stop_lon":"3.89251912721603"},{"stop_id":"16206","name":"Fr\u00e9d\u00e9ric Bazille","stop_lat":"43.6027043748847","stop_lon":"3.88054379500569"}],"routes":[{"stop_id":"21","stop_name":"Gare Saint-Roch","partiel":"0","stop_order":"1","direction":"Vers Cit\u00e9 de l'Arme"},{"stop_id":"16206","stop_name":"Fr\u00e9d\u00e9ric Bazille","partiel":"0","stop_order":"2","direction":"Vers Cit\u00e9 de l'Arme"},{"stop_id":"8218","stop_name":"Helios","partiel":"0","stop_order":"3","direction":"Vers Cit\u00e9 de l'Arme"},{"stop_id":"8219","stop_name":"Soleiado","partiel":"0","stop_order":"4","direction":"Vers Cit\u00e9 de l'Arme"},{"stop_id":"8220","stop_name":"Chamb\u00e9ry","partiel":"0","stop_order":"5","direction":"Vers Cit\u00e9 de l'Arme"},{"stop_id":"8221","stop_name":"Coll\u00e8ge des Aiguerelles","partiel":"0","stop_order":"6","direction":"Vers Cit\u00e9 de l'Arme"},{"stop_id":"10125","stop_name":"Jean Mirailhet","partiel":"0","stop_order":"7","direction":"Vers Cit\u00e9 de l'Arme"},{"stop_id":"3219","stop_name":"Lucullus","partiel":"0","stop_order":"8","direction":"Vers Cit\u00e9 de l'Arme"},{"stop_id":"3220","stop_name":"Cit\u00e9 de l'Arme","partiel":"0","stop_order":"9","direction":"Vers Cit\u00e9 de l'Arme"},{"stop_id":"3220","stop_name":"Cit\u00e9 de l'Arme","partiel":"0","stop_order":"1","direction":"Vers Gare Saint-Roch"},{"stop_id":"8103","stop_name":"Jean Mirailhet","partiel":"0","stop_order":"2","direction":"Vers Gare Saint-Roch"},{"stop_id":"8104","stop_name":"Coll\u00e8ge des Aiguerelles","partiel":"0","stop_order":"3","direction":"Vers Gare Saint-Roch"},{"stop_id":"8105","stop_name":"Chamb\u00e9ry","partiel":"0","stop_order":"4","direction":"Vers Gare Saint-Roch"},{"stop_id":"8106","stop_name":"Soleiado","partiel":"0","stop_order":"5","direction":"Vers Gare Saint-Roch"},{"stop_id":"3112","stop_name":"Cit\u00e9 Mion","partiel":"0","stop_order":"6","direction":"Vers Gare Saint-Roch"},{"stop_id":"8131","stop_name":"Place Carnot","partiel":"0","stop_order":"7","direction":"Vers Gare Saint-Roch"},{"stop_id":"8132","stop_name":"Henri Ren\u00e9","partiel":"0","stop_order":"8","direction":"Vers Gare Saint-Roch"},{"stop_id":"3115","stop_name":"Place de Strasbourg","partiel":"0","stop_order":"9","direction":"Vers Gare Saint-Roch"},{"stop_id":"21","stop_name":"Gare Saint-Roch","partiel":"0","stop_order":"10","direction":"Vers Gare Saint-Roch"}]},{"route_number":"9","color":"92D050","picto":"L9.png","stops":[{"stop_id":"9122","name":"Paul Painlev\u00e9","stop_lat":"43.6111480844713","stop_lon":"3.89853869912733"},{"stop_id":"9123","name":"Colverts","stop_lat":"43.6137694888596","stop_lon":"3.89816495391895"},{"stop_id":"9124","name":"Saint-Jean","stop_lat":"43.6154653182185","stop_lon":"3.89776587646284"},{"stop_id":"9125","name":"Marie Durand","stop_lat":"43.6183195422658","stop_lon":"3.89807899528503"},{"stop_id":"9126","name":"Andr\u00e9 Malraux","stop_lat":"43.6194095977056","stop_lon":"3.90041039087255"},{"stop_id":"9129","name":"S\u00e9mard","stop_lat":"43.6191462999868","stop_lon":"3.90307599089078"},{"stop_id":"9132","name":"S\u00e9mard","stop_lat":"43.6191662745309","stop_lon":"3.90355912959453"},{"stop_id":"9137","name":"Louis L\u00e9pine","stop_lat":"43.6146278792328","stop_lon":"3.91459521937689"},{"stop_id":"9138","name":"Volta Fizeau","stop_lat":"43.6138734599318","stop_lon":"3.91331233086448"},{"stop_id":"9139","name":"\u00c9variste Galois","stop_lat":"43.609269176775","stop_lon":"3.9121831151654"},{"stop_id":"9140","name":"Samuel Morse","stop_lat":"43.6063885552467","stop_lon":"3.91306863594444"},{"stop_id":"9141","name":"Georges M\u00e9li\u00e8s","stop_lat":"43.6066844481333","stop_lon":"3.92296160350557"},{"stop_id":"9143","name":"Domaine de la Pompignane","stop_lat":"43.6217700400651","stop_lon":"3.90626637638223"},{"stop_id":"9145","name":"Apollo","stop_lat":"43.621890487853","stop_lon":"3.90849713777414"},{"stop_id":"9146","name":"Place de France","stop_lat":"43.6036895748809","stop_lon":"3.91506008433915"},{"stop_id":"9147","name":"Cinq Chalets","stop_lat":"43.6085913727849","stop_lon":"3.89879046096751"},{"stop_id":"9148","name":"Saint-Michel","stop_lat":"43.6061314907569","stop_lon":"3.89856236821735"},{"stop_id":"9149","name":"Place de l'Europe","stop_lat":"43.6082966506284","stop_lon":"3.89429145662823"},{"stop_id":"9202","name":"Andr\u00e9 Malraux","stop_lat":"43.6195016047928","stop_lon":"3.90026441974371"},{"stop_id":"9203","name":"Marie Durand","stop_lat":"43.6183673288716","stop_lon":"3.89788231873107"},{"stop_id":"9204","name":"Saint-Jean","stop_lat":"43.615619689584","stop_lon":"3.89765873563585"},{"stop_id":"9205","name":"Colverts","stop_lat":"43.6137074779732","stop_lon":"3.89810139405042"},{"stop_id":"9206","name":"Paul Painlev\u00e9","stop_lat":"43.6105273248078","stop_lon":"3.89857121474418"},{"stop_id":"9207","name":"Cinq Chalets","stop_lat":"43.6085913727849","stop_lon":"3.89879046096751"},{"stop_id":"9208","name":"Saint-Michel","stop_lat":"43.6061314907569","stop_lon":"3.89856236821735"},{"stop_id":"9232","name":"Place de l'Europe","stop_lat":"43.6074715265701","stop_lon":"3.89415761386362"},{"stop_id":"9235","name":"Louis L\u00e9pine","stop_lat":"43.6147055077837","stop_lon":"3.91482008144468"},{"stop_id":"9236","name":"Volta Fizeau","stop_lat":"43.613794386686","stop_lon":"3.91318641827075"},{"stop_id":"9238","name":"Domaine de la Pompignane","stop_lat":"43.6217736431459","stop_lon":"3.90663771640475"},{"stop_id":"9239","name":"Samuel Morse","stop_lat":"43.6070303286057","stop_lon":"3.91344512045481"},{"stop_id":"9241","name":"Georges M\u00e9li\u00e8s","stop_lat":"43.6067940942977","stop_lon":"3.92284093319964"},{"stop_id":"9246","name":"Place de France","stop_lat":"43.6036694375821","stop_lon":"3.91520797762296"},{"stop_id":"10123","name":"Guglielmo Marconi","stop_lat":"43.6114517263899","stop_lon":"3.91231754982244"},{"stop_id":"10159","name":"Pierre Laroque","stop_lat":"43.6213936316369","stop_lon":"3.90432559169825"},{"stop_id":"10229","name":"Guglielmo Marconi","stop_lat":"43.61186418833","stop_lon":"3.91239079037532"},{"stop_id":"10259","name":"Pierre Laroque","stop_lat":"43.6211786789844","stop_lon":"3.9042701931816"},{"stop_id":"11103","name":"Pinville","stop_lat":"43.6138650561147","stop_lon":"3.90585118228076"},{"stop_id":"11104","name":"Fran\u00e7ois Couperin","stop_lat":"43.6127220678064","stop_lon":"3.90283795378972"},{"stop_id":"11105","name":"Vieille Poste","stop_lat":"43.6105865871079","stop_lon":"3.90006987785678"},{"stop_id":"11218","name":"Vieille Poste","stop_lat":"43.6108074880023","stop_lon":"3.90033574225849"},{"stop_id":"11219","name":"Fran\u00e7ois Couperin","stop_lat":"43.612882419269","stop_lon":"3.90355997076415"},{"stop_id":"11220","name":"Pinville","stop_lat":"43.6139491773105","stop_lon":"3.90624942940283"},{"stop_id":"12117","name":"Z\u00e9nith","stop_lat":"43.6120774911651","stop_lon":"3.93096801781037"},{"stop_id":"12118","name":"Albert Einstein","stop_lat":"43.6131461320041","stop_lon":"3.93713481321889"},{"stop_id":"12119","name":"Cimeti\u00e8re Saint-\u00c9tienne","stop_lat":"43.6150021543412","stop_lon":"3.93564015498458"},{"stop_id":"12124","name":"Eur\u00eaka","stop_lat":"43.6180002968696","stop_lon":"3.91265907079507"},{"stop_id":"12125","name":"Alfred Nobel","stop_lat":"43.6164184164071","stop_lon":"3.91078413583713"},{"stop_id":"12201","name":"Grammont","stop_lat":"43.6141228044854","stop_lon":"3.93065391429186"},{"stop_id":"12202","name":"Cimeti\u00e8re Saint-\u00c9tienne","stop_lat":"43.6148946865643","stop_lon":"3.93561239984086"},{"stop_id":"12203","name":"Albert Einstein","stop_lat":"43.6132286533042","stop_lon":"3.93702576897348"},{"stop_id":"12204","name":"Z\u00e9nith","stop_lat":"43.6122286146762","stop_lon":"3.93108359031285"},